{
"type": "FeatureCollection",
"crs": { "type": "name", "properties": { "name": "urn:ogc:def:crs:OGC:1.3:CRS84" } },
"features":[{"type":"Feature","geometry":{"type":"Point","coordinates":[-105.009308,39.758515]},"properties":{"address":"","name":"Ale House at Amato's"," Description":"TapHouse"}},
{"type":"Feature","geometry":{"type":"Point","coordinates":[-104.991404,39.756403]},"properties":{"address":"","name":"Breckenridge Brewery"," Description":"TapHouse"}},
{"type":"Feature","geometry":{"type":"Point","coordinates":[-104.98013,39.739908]},"properties":{"address":"","name":"Cheeky Monk Belgian Beer Cafe"," Description":"TapHouse"}},{"type":"Feature","geometry":{"type":"Point","coordinates":[-104.9953,39.753709]},"properties":{"address":"","name":"Falling Rock Tap House"," Description":"TapHouse"}},{"type":"Feature","geometry":{"type":"Point","coordinates":[-104.999692,39.749974]},"properties":{"address":"","name":"Freshcraft"," Description":"TapHouse"}},{"type":"Feature","geometry":{"type":"Point","coordinates":[-105.043868,39.771397]},"properties":{"address":"","name":"Hops & Pie"," Description":"TapHouse"}},{"type":"Feature","geometry":{"type":"Point","coordinates":[-104.99853,39.712261]},"properties":{"address":"","name":"Rackhouse Pub"," Description":"TapHouse"}},{"type":"Feature","geometry":{"type":"Point","coordinates":[-104.98958,39.742941]},"properties":{"address":"","name":"Yard House"," Description":"TapHouse"}},{"type":"Feature","geometry":{"type":"Point","coordinates":[-104.972814,39.769741]},"properties":{"address":"","name":"Black Shirt Brewing Co"," Description":" "}},{"type":"Feature","geometry":{"type":"Point","coordinates":[-105.000293,39.723474]},"properties":{"address":"","name":"Breckenridge Brewery"," Description":" "}},{"type":"Feature","geometry":{"type":"Point","coordinates":[-104.932437,39.703027]},"properties":{"address":"","name":"Bull & Bush"," Description":" "}},{"type":"Feature","geometry":{"type":"Point","coordinates":[-104.89134,39.692681]},"properties":{"address":"","name":"Copper Kettle Brewing Company"," Description":" "}},{"type":"Feature","geometry":{"type":"Point","coordinates":[-104.979568,39.768771]},"properties":{"address":"","name":"Crooked Stave Artisan Beer Project"," Description":" "}},{"type":"Feature","geometry":{"type":"Point","coordinates":[-105.043517,39.776111]},"properties":{"address":"","name":"De Steeg Brewing"," Description":" "}},{"type":"Feature","geometry":{"type":"Point","coordinates":[-105.007108,39.758362]},"properties":{"address":"","name":"Denver Beer Co"," Description":" "}},{"type":"Feature","geometry":{"type":"Point","coordinates":[-104.997416,39.75496]},"properties":{"address":"","name":"Denver ChopHouse & Brewery"," Description":" "}},{"type":"Feature","geometry":{"type":"Point","coordinates":[-104.981415,39.76332]},"properties":{"address":"","name":"Epic Brewing Company"," Description":" "}},{"type":"Feature","geometry":{"type":"Point","coordinates":[-104.988457,39.753656]},"properties":{"address":"","name":"Great Divide Brewing Co"," Description":" "}},{"type":"Feature","geometry":{"type":"Point","coordinates":[-105.045073,39.758255]},"properties":{"address":"","name":"Hogshead Brewery"," Description":" "}},{"type":"Feature","geometry":{"type":"Point","coordinates":[-104.982494,39.760606]},"properties":{"address":"","name":"Our Mutual Friend Brewing"," Description":" "}},{"type":"Feature","geometry":{"type":"Point","coordinates":[-105.006671,39.76139]},"properties":{"address":"","name":"Prost Brewing Company"," Description":" "}},{"type":"Feature","geometry":{"type":"Point","coordinates":[-104.999312,39.730616]},"properties":{"address":"","name":"Renegade Brewing Company"," Description":" "}},{"type":"Feature","geometry":{"type":"Point","coordinates":[-104.989474,39.758217]},"properties":{"address":"","name":"River North Brewery"," Description":" "}},{"type":"Feature","geometry":{"type":"Point","coordinates":[-105.015268,39.737228]},"properties":{"address":"","name":"Strange Brewing Company"," Description":" "}},{"type":"Feature","geometry":{"type":"Point","coordinates":[-104.987665,39.719958]},"properties":{"address":"","name":"TRVE Brewing Co."," Description":" "}},{"type":"Feature","geometry":{"type":"Point","coordinates":[-105.017491,39.720619]},"properties":{"address":"","name":"Wit's End Brewing Company"," Description":" "}},{"type":"Feature","geometry":{"type":"Point","coordinates":[-104.998373,39.753504]},"properties":{"address":"","name":"Wynkoop Brewing Company"," Description":" "}},{"type":"Feature","geometry":{"type":"Point","coordinates":[-104.81175,39.652927]},"properties":{"address":"","name":"Dry Dock Brewing Co"," Description":" "}},{"type":"Feature","geometry":{"type":"Point","coordinates":[-105.235164,39.768617]},"properties":{"address":"","name":"Cannonball Creek Brewing Co"," Description":" "}},{"type":"Feature","geometry":{"type":"Point","coordinates":[-105.21743,39.755842]},"properties":{"address":"","name":"Coors Brewery Tour"," Description":" "}},{"type":"Feature","geometry":{"type":"Point","coordinates":[-105.223718,39.754641]},"properties":{"address":"","name":"Golden City Brewery"," Description":" "}},{"type":"Feature","geometry":{"type":"Point","coordinates":[-105.22416,39.758144]},"properties":{"address":"","name":"Mountain Toad Brewing"," Description":" "}},{"type":"Feature","geometry":{"type":"Point","coordinates":[-104.991463,39.752273]},"properties":{"address":"","name":"Jagged Mountain Craft Brewery"," Description":" "}},{"type":"Feature","geometry":{"type":"Point","coordinates":[-104.843913,39.772295]},"properties":{"address":"","name":"CAUTION: Brewing Company"," Description":" "}},{"type":"Feature","geometry":{"type":"Point","coordinates":[-104.99848,39.723937]},"properties":{"address":"","name":"Black Sky Brewery"," Description":" "}},{"type":"Feature","geometry":{"type":"Point","coordinates":[-104.898488,39.675659]},"properties":{"address":"","name":"Comrade Brewing Company"," Description":" "}},{"type":"Feature","geometry":{"type":"Point","coordinates":[-104.905964,39.769571]},"properties":{"address":"","name":"Station 26 Brewing Co."," Description":" "}},{"type":"Feature","geometry":{"type":"Point","coordinates":[-104.967046,39.678709]},"properties":{"address":"","name":"FERMÃ†NTRA Brewery and Tap Room"," Description":" "}},{"type":"Feature","geometry":{"type":"Point","coordinates":[-104.90565,39.740383]},"properties":{"address":"","name":"Fiction Beer Company"," Description":" "}},{"type":"Feature","geometry":{"type":"Point","coordinates":[-104.98041,39.739778]},"properties":{"address":"","name":"Lost Highway Brewing Company"," Description":" "}},{"type":"Feature","geometry":{"type":"Point","coordinates":[-104.974929,39.740326]},"properties":{"address":"","name":"Alpine Dog Brewing Company"," Description":" "}},{"type":"Feature","geometry":{"type":"Point","coordinates":[-105.003318,39.770354]},"properties":{"address":"","name":"Diebolt Brewing Company"," Description":" "}},{"type":"Feature","geometry":{"type":"Point","coordinates":[-104.985753,39.729311]},"properties":{"address":"","name":"LowDown Brewery + Kitchen"," Description":" "}},{"type":"Feature","geometry":{"type":"Point","coordinates":[-104.98707,39.693394]},"properties":{"address":"","name":"Former Future Brewing Company"," Description":" "}},{"type":"Feature","geometry":{"type":"Point","coordinates":[-104.98703,39.721424]},"properties":{"address":"","name":"Baere Brewing Company"," Description":" "}},{"type":"Feature","geometry":{"type":"Point","coordinates":[-104.987272,39.685475]},"properties":{"address":"","name":"Grandma's House"," Description":" "}},{"type":"Feature","geometry":{"type":"Point","coordinates":[-104.990773,39.679751]},"properties":{"address":"","name":"Declaration Brewing"," Description":" "}},{"type":"Feature","geometry":{"type":"Point","coordinates":[-105.0012,39.699624]},"properties":{"address":"","name":"Chain Reaction Brewing Company"," Description":" "}},{"type":"Feature","geometry":{"type":"Point","coordinates":[-105.034315,39.786894]},"properties":{"address":"","name":"Goldspot Brewing Company"," Description":" "}},{"type":"Feature","geometry":{"type":"Point","coordinates":[-104.977395,39.829343]},"properties":{"address":"","name":"Creede Brewing Company"," Description":" "}},{"type":"Feature","geometry":{"type":"Point","coordinates":[-104.980346,39.76469]},"properties":{"address":"","name":"Beryl's Beer Co."," Description":" "}},{"type":"Feature","geometry":{"type":"Point","coordinates":[-104.986266,39.759585]},"properties":{"address":"","name":"Zephyr Brewing Company"," Description":" "}},{"type":"Feature","geometry":{"type":"Point","coordinates":[-104.981146,39.761572]},"properties":{"address":"","name":"Ratio Beerworks"," Description":" "}},{"type":"Feature","geometry":{"type":"Point","coordinates":[-104.979739,39.771214]},"properties":{"address":"","name":"Mockery Brewing"," Description":" "}},{"type":"Feature","geometry":{"type":"Point","coordinates":[-104.977123,39.755076]},"properties":{"address":"","name":"Spangalang Brewery"," Description":" "}},{"type":"Feature","geometry":{"type":"Point","coordinates":[-105.058936,39.800845]},"properties":{"address":"","name":"Odyssey Beerwerks Brewery & Taproom"," Description":" "}},{"type":"Feature","geometry":{"type":"Point","coordinates":[-104.874633,39.740434]},"properties":{"address":"","name":"Mu Brewery"," Description":" "}},{"type":"Feature","geometry":{"type":"Point","coordinates":[-104.838031,39.748301]},"properties":{"address":"","name":"Coda Brewing Co.'s"," Description":" "}},{"type":"Feature","geometry":{"type":"Point","coordinates":[-105.07836,39.909973]},"properties":{"address":"","name":"Big Choice Brewing, LLC"," Description":" "}},{"type":"Feature","geometry":{"type":"Point","coordinates":[-105.053634,39.7532]},"properties":{"address":"","name":"Joyride Brewing Company"," Description":" "}},{"type":"Feature","geometry":{"type":"Point","coordinates":[-105.219932,39.756473]},"properties":{"address":"","name":"Barrels & Bottles Brewery"," Description":" "}},{"type":"Feature","geometry":{"type":"Point","coordinates":[-105.082391,39.698229]},"properties":{"address":"","name":"CAUTION: Brewing Company"," Description":" "}},{"type":"Feature","geometry":{"type":"Point","coordinates":[-105.081624,39.775649]},"properties":{"address":"","name":"Brewery Rickoli"," Description":" "}}]}
