{
"type": "FeatureCollection",
"crs": { "type": "name", "properties": { "name": "urn:ogc:def:crs:OGC:1.3:CRS84" } },
"features": [{"type":"Feature","geometry":{"type":"Point","coordinates":[-106.066061,39.293199]},"properties":{"name":"The High Country Cannabis Company Llc","dba":"","address":"54530 Highway 9","city":"Alma","state":"CO","lat":39.2931987,"lng":-106.0660612,"retail":1,"medical":0,"notes":"","cartodb_id":3,"created_at":"2015-01-28T23:30:45Z","updated_at":"2015-01-28T23:30:45Z"}},{"type":"Feature","geometry":{"type":"Point","coordinates":[-104.756624,38.894876]},"properties":{"name":"Jp Labs Llc","dba":"Jp Labs","address":"4344 Montebello Drive","city":"Colorado Springs","state":"CO","lat":38.89487586,"lng":-104.7566237,"retail":0,"medical":1,"notes":"","cartodb_id":408,"created_at":"2015-01-28T23:30:45Z","updated_at":"2015-01-28T23:30:45Z"}},{"type":"Feature","geometry":{"type":"Point","coordinates":[-105.07739,40.49445]},"properties":{"name":"Kind Care Of Colorado Llc","dba":"","address":"6617 South College Avenue","city":"Fort Collins","state":"CO","lat":40.49445043,"lng":-105.0773902,"retail":0,"medical":1,"notes":"","cartodb_id":1,"created_at":"2015-01-28T23:30:45Z","updated_at":"2015-01-28T23:30:45Z"}},{"type":"Feature","geometry":{"type":"Point","coordinates":[-104.852466,39.792813]},"properties":{"name":"Medicine Man Production Corporation","dba":"Medicine Man Denver","address":"4750-4760 Nome Street","city":"Denver","state":"CO","lat":39.79281293,"lng":-104.8524656,"retail":1,"medical":0,"notes":"","cartodb_id":2,"created_at":"2015-01-28T23:30:45Z","updated_at":"2015-01-28T23:30:45Z"}},{"type":"Feature","geometry":{"type":"Point","coordinates":[-105.109567,39.745234]},"properties":{"name":"Green Meadows Wellness Llc","dba":"Infinite Wellness Center","address":"1701 Kipling Street, Suite 104","city":"Lakewood","state":"CO","lat":39.745234,"lng":-105.109567,"retail":0,"medical":1,"notes":"","cartodb_id":4,"created_at":"2015-01-28T23:30:45Z","updated_at":"2015-01-28T23:30:45Z"}},{"type":"Feature","geometry":{"type":"Point","coordinates":[-104.693858,39.583657]},"properties":{"name":"3lp Llc","dba":"","address":"6403 North Jackson Gap Street","city":"Aurora","state":"CO","lat":39.5836574,"lng":-104.6938576,"retail":1,"medical":0,"notes":"Likely not a store, this appears to be someone's house. ","cartodb_id":5,"created_at":"2015-01-28T23:30:45Z","updated_at":"2015-01-28T23:30:45Z"}},{"type":"Feature","geometry":{"type":"Point","coordinates":[-105.025083,39.702164]},"properties":{"name":"The Clone Store Llc","dba":"","address":"755 S Federal Blvd Unit 5","city":"Denver","state":"CO","lat":39.70216383,"lng":-105.0250831,"retail":1,"medical":0,"notes":"","cartodb_id":6,"created_at":"2015-01-28T23:30:45Z","updated_at":"2015-01-28T23:30:45Z"}},{"type":"Feature","geometry":{"type":"Point","coordinates":[-105.016961,39.613725]},"properties":{"name":"Metro Denver Telluride Health Center Llc","dba":"The Hemp Center","address":"2430 West Main Street","city":"Littleton","state":"CO","lat":39.61372461,"lng":-105.016961,"retail":0,"medical":1,"notes":"","cartodb_id":7,"created_at":"2015-01-28T23:30:45Z","updated_at":"2015-01-28T23:30:45Z"}},{"type":"Feature","geometry":{"type":"Point","coordinates":[-104.994134,39.735749]},"properties":{"name":"Advanced Medical Alternatives Llc","dba":"","address":"1269 Elati Street","city":"Denver","state":"CO","lat":39.73574865,"lng":-104.9941342,"retail":0,"medical":1,"notes":"","cartodb_id":8,"created_at":"2015-01-28T23:30:45Z","updated_at":"2015-01-28T23:30:45Z"}},{"type":"Feature","geometry":{"type":"Point","coordinates":[-105.001747,39.749832]},"properties":{"name":"Lotus Medical Llc","dba":"","address":"1444 Wazee Street, #115","city":"Denver","state":"CO","lat":39.74983243,"lng":-105.001747,"retail":0,"medical":1,"notes":"","cartodb_id":9,"created_at":"2015-01-28T23:30:45Z","updated_at":"2015-01-28T23:30:45Z"}},{"type":"Feature","geometry":{"type":"Point","coordinates":[-104.978283,39.789308]},"properties":{"name":"Colorados Best Inc","dba":"Lacontes Clone Bar & Dispensary","address":"5194 Washington Street","city":"Denver","state":"CO","lat":39.78930771,"lng":-104.9782826,"retail":1,"medical":1,"notes":"","cartodb_id":10,"created_at":"2015-01-28T23:30:45Z","updated_at":"2015-01-28T23:30:45Z"}},{"type":"Feature","geometry":{"type":"Point","coordinates":[-104.942932,39.77292]},"properties":{"name":"Rocky Mountain Farmacy Inc","dba":"The Shelter","address":"4095 Jackson Street","city":"Denver","state":"CO","lat":39.77291963,"lng":-104.9429325,"retail":1,"medical":1,"notes":"","cartodb_id":11,"created_at":"2015-01-28T23:30:45Z","updated_at":"2015-01-28T23:30:45Z"}},{"type":"Feature","geometry":{"type":"Point","coordinates":[-104.907679,39.771697]},"properties":{"name":"Flavored Essentials Llc","dba":"","address":"3955 Oneida Street","city":"Denver","state":"CO","lat":39.77169739,"lng":-104.9076789,"retail":1,"medical":1,"notes":"","cartodb_id":12,"created_at":"2015-01-28T23:30:45Z","updated_at":"2015-01-28T23:30:45Z"}},{"type":"Feature","geometry":{"type":"Point","coordinates":[-105.252087,40.213354]},"properties":{"name":"Colorado Healing Llc","dba":"Headquarters","address":"4497 Ute Highway","city":"Longmont","state":"CO","lat":40.21335446,"lng":-105.2520865,"retail":1,"medical":1,"notes":"","cartodb_id":13,"created_at":"2015-01-28T23:30:45Z","updated_at":"2015-01-28T23:30:45Z"}},{"type":"Feature","geometry":{"type":"Point","coordinates":[-104.820235,39.620097]},"properties":{"name":"Lightshade Labs Llc","dba":"Lightshade","address":"5380 S Parker Rd","city":"Aurora","state":"CO","lat":39.62009718,"lng":-104.820235,"retail":1,"medical":0,"notes":"","cartodb_id":14,"created_at":"2015-01-28T23:30:45Z","updated_at":"2015-01-28T23:30:45Z"}},{"type":"Feature","geometry":{"type":"Point","coordinates":[-108.570646,37.348855]},"properties":{"name":"Durango Organics Llp","dba":"Do Cortez Llp","address":"1104 East Main Street","city":"Cortez","state":"CO","lat":37.34885483,"lng":-108.5706459,"retail":1,"medical":1,"notes":"","cartodb_id":15,"created_at":"2015-01-28T23:30:45Z","updated_at":"2015-01-28T23:30:45Z"}},{"type":"Feature","geometry":{"type":"Point","coordinates":[-104.916591,39.667588]},"properties":{"name":"Medical Cannabis Colorado Llc","dba":"Cure Colorado","address":"6200 East Yale Avenue, Unit B","city":"Denver","state":"CO","lat":39.667588,"lng":-104.916591,"retail":0,"medical":1,"notes":"","cartodb_id":16,"created_at":"2015-01-28T23:30:45Z","updated_at":"2015-01-28T23:30:45Z"}},{"type":"Feature","geometry":{"type":"Point","coordinates":[-105.241637,40.036489]},"properties":{"name":"Skinny Pineapple Inc","dba":"The Farm","address":"2801 Iris Avenue","city":"Boulder","state":"CO","lat":40.03648897,"lng":-105.2416373,"retail":1,"medical":0,"notes":"","cartodb_id":17,"created_at":"2015-01-28T23:30:45Z","updated_at":"2015-01-28T23:30:45Z"}},{"type":"Feature","geometry":{"type":"Point","coordinates":[-106.858605,40.50856]},"properties":{"name":"Natural Choice Co-Op","dba":"","address":"2835 Downhill Plaza, Suite 603,","city":"Steamboat Springs","state":"CO","lat":40.50856038,"lng":-106.8586051,"retail":0,"medical":1,"notes":"","cartodb_id":18,"created_at":"2015-01-28T23:30:45Z","updated_at":"2015-01-28T23:30:45Z"}},{"type":"Feature","geometry":{"type":"Point","coordinates":[-104.922316,39.773893]},"properties":{"name":"Lightshade Labs Llc","dba":"","address":"3950 Holly Street","city":"Denver","state":"CO","lat":39.77389324,"lng":-104.9223162,"retail":1,"medical":1,"notes":"","cartodb_id":19,"created_at":"2015-01-28T23:30:45Z","updated_at":"2015-01-28T23:30:45Z"}},{"type":"Feature","geometry":{"type":"Point","coordinates":[-104.998701,39.725705]},"properties":{"name":"Cure Medical Pharm Inc","dba":"Riverrock","address":"990 West 6th Avenue, Suite 5","city":"Denver","state":"CO","lat":39.72570508,"lng":-104.9987007,"retail":0,"medical":1,"notes":"","cartodb_id":20,"created_at":"2015-01-28T23:30:45Z","updated_at":"2015-01-28T23:30:45Z"}},{"type":"Feature","geometry":{"type":"Point","coordinates":[-104.991293,39.695821]},"properties":{"name":"The Delta 9 Factory Llc","dba":"Deep Green River Llc","address":"1155 South Cherokee Street","city":"Denver","state":"CO","lat":39.69582073,"lng":-104.991293,"retail":0,"medical":1,"notes":"","cartodb_id":21,"created_at":"2015-01-28T23:30:45Z","updated_at":"2015-01-28T23:30:45Z"}},{"type":"Feature","geometry":{"type":"Point","coordinates":[-104.740753,38.338925]},"properties":{"name":"Maggies Farm Llc","dba":"Maggies Farm","address":"74 North Component Drive, Suite 170","city":"Pueblo West","state":"CO","lat":38.3389249,"lng":-104.7407526,"retail":0,"medical":1,"notes":"","cartodb_id":22,"created_at":"2015-01-28T23:30:45Z","updated_at":"2015-01-28T23:30:45Z"}},{"type":"Feature","geometry":{"type":"Point","coordinates":[-104.959278,39.7862]},"properties":{"name":"Twog York Llc","dba":"Buddy Boy","address":"5050 York Street","city":"Denver","state":"CO","lat":39.7862,"lng":-104.9592783,"retail":1,"medical":1,"notes":"","cartodb_id":23,"created_at":"2015-01-28T23:30:45Z","updated_at":"2015-01-28T23:30:45Z"}},{"type":"Feature","geometry":{"type":"Point","coordinates":[-105.004065,39.769285]},"properties":{"name":"Doctors Orders Llc","dba":"","address":"1406 West 38th Avenue","city":"Denver","state":"CO","lat":39.76928533,"lng":-105.0040653,"retail":1,"medical":1,"notes":"","cartodb_id":24,"created_at":"2015-01-28T23:30:45Z","updated_at":"2015-01-28T23:30:45Z"}},{"type":"Feature","geometry":{"type":"Point","coordinates":[-104.968461,39.740009]},"properties":{"name":"Natures Cure Iii Llc","dba":"Natures Cure Iii","address":"1500 East Colfax Avenue","city":"Denver","state":"CO","lat":39.740009,"lng":-104.968461,"retail":1,"medical":1,"notes":"","cartodb_id":25,"created_at":"2015-01-28T23:30:45Z","updated_at":"2015-01-28T23:30:45Z"}},{"type":"Feature","geometry":{"type":"Point","coordinates":[-105.262995,40.016298]},"properties":{"name":"The Genetic Locker Inc","dba":"Terrapin Care Station","address":"1795 Folsom Street","city":"Boulder","state":"CO","lat":40.01629794,"lng":-105.2629952,"retail":1,"medical":0,"notes":"","cartodb_id":26,"created_at":"2015-01-28T23:30:45Z","updated_at":"2015-01-28T23:30:45Z"}},{"type":"Feature","geometry":{"type":"Point","coordinates":[-104.932768,39.740135]},"properties":{"name":"Health Depot Llc","dba":"Sticky Buds - Colfax","address":"4615 East Colfax Avenue","city":"Denver","state":"CO","lat":39.74013493,"lng":-104.9327681,"retail":1,"medical":1,"notes":"","cartodb_id":27,"created_at":"2015-01-28T23:30:45Z","updated_at":"2015-01-28T23:30:45Z"}},{"type":"Feature","geometry":{"type":"Point","coordinates":[-104.973473,39.674594]},"properties":{"name":"Urban Cannabis Llc","dba":"","address":"2383 South Downing Street","city":"Denver","state":"CO","lat":39.67459353,"lng":-104.9734728,"retail":1,"medical":1,"notes":"","cartodb_id":28,"created_at":"2015-01-28T23:30:45Z","updated_at":"2015-01-28T23:30:45Z"}},{"type":"Feature","geometry":{"type":"Point","coordinates":[-104.932845,39.740135]},"properties":{"name":"4625 East Colfax Llc","dba":"The Clinic On Colfax","address":"4625 East Colfax Avenue","city":"Denver","state":"CO","lat":39.74013486,"lng":-104.9328452,"retail":1,"medical":1,"notes":"","cartodb_id":29,"created_at":"2015-01-28T23:30:45Z","updated_at":"2015-01-28T23:30:45Z"}},{"type":"Feature","geometry":{"type":"Point","coordinates":[-106.078431,39.646983]},"properties":{"name":"Tz Financial Llc","dba":"High Country Healing","address":"191 Blue River Parkway, Suite 200A","city":"Silverthorne","state":"CO","lat":39.6469832,"lng":-106.0784312,"retail":0,"medical":1,"notes":"","cartodb_id":30,"created_at":"2015-01-28T23:30:45Z","updated_at":"2015-01-28T23:30:45Z"}},{"type":"Feature","geometry":{"type":"Point","coordinates":[-103.822684,40.265959]},"properties":{"name":"Nature'S Herbs And Wellness Center Ii Llc","dba":"Natural Herbs And Wellness Center Ii Llc","address":"17224 N Frontage Rd","city":"Log Lane Village","state":"CO","lat":40.2659585,"lng":-103.8226841,"retail":1,"medical":0,"notes":"","cartodb_id":31,"created_at":"2015-01-28T23:30:45Z","updated_at":"2015-01-28T23:30:45Z"}},{"type":"Feature","geometry":{"type":"Point","coordinates":[-105.16631,39.96181]},"properties":{"name":"Compassionate Pain Management Llc","dba":"","address":"1116 West Dillion Road, Unit 7","city":"Louisville","state":"CO","lat":39.9618103,"lng":-105.1663103,"retail":0,"medical":1,"notes":"","cartodb_id":32,"created_at":"2015-01-28T23:30:45Z","updated_at":"2015-01-28T23:30:45Z"}},{"type":"Feature","geometry":{"type":"Point","coordinates":[-104.771904,38.841798]},"properties":{"name":"Rocky Mountain Medical Llc","dba":"","address":"616 Arrawanna Street","city":"Colorado Springs","state":"CO","lat":38.84179767,"lng":-104.7719038,"retail":0,"medical":1,"notes":"","cartodb_id":33,"created_at":"2015-01-28T23:30:45Z","updated_at":"2015-01-28T23:30:45Z"}},{"type":"Feature","geometry":{"type":"Point","coordinates":[-105.011091,39.678647]},"properties":{"name":"Livwell Iii Llc","dba":"Livwell","address":"2193 West Evans Avenue","city":"Denver","state":"CO","lat":39.67864661,"lng":-105.011091,"retail":1,"medical":1,"notes":"","cartodb_id":34,"created_at":"2015-01-28T23:30:45Z","updated_at":"2015-01-28T23:30:45Z"}},{"type":"Feature","geometry":{"type":"Point","coordinates":[-107.037141,39.357575]},"properties":{"name":"Rfscb Llc","dba":"Roots Rx","address":"165 Southside Dr","city":"Basalt","state":"CO","lat":39.3575749,"lng":-107.037141,"retail":1,"medical":0,"notes":"","cartodb_id":35,"created_at":"2015-01-28T23:30:45Z","updated_at":"2015-01-28T23:30:45Z"}},{"type":"Feature","geometry":{"type":"Point","coordinates":[-104.99429,39.783656]},"properties":{"name":"Fox Street Wellness Llc","dba":"","address":"4773 Fox Street","city":"Denver","state":"CO","lat":39.7836565,"lng":-104.99429,"retail":1,"medical":1,"notes":"","cartodb_id":36,"created_at":"2015-01-28T23:30:45Z","updated_at":"2015-01-28T23:30:45Z"}},{"type":"Feature","geometry":{"type":"Point","coordinates":[-105.073136,40.587012]},"properties":{"name":"Organic Alternatives Llc","dba":"","address":"346 East Mountain Avenue","city":"Fort Collins","state":"CO","lat":40.58701249,"lng":-105.0731361,"retail":1,"medical":1,"notes":"","cartodb_id":37,"created_at":"2015-01-28T23:30:45Z","updated_at":"2015-01-28T23:30:45Z"}},{"type":"Feature","geometry":{"type":"Point","coordinates":[-105.052075,39.778388]},"properties":{"name":"Firehouse Organics North Llc","dba":"Firehouse Organics","address":"4401 Zenobia Street","city":"Denver","state":"CO","lat":39.778388,"lng":-105.052075,"retail":0,"medical":1,"notes":"","cartodb_id":38,"created_at":"2015-01-28T23:30:45Z","updated_at":"2015-01-28T23:30:45Z"}},{"type":"Feature","geometry":{"type":"Point","coordinates":[-105.01916,39.711171]},"properties":{"name":"The Green Solution Llc","dba":"","address":"2601 West Alameda Avenue","city":"Denver","state":"CO","lat":39.711171,"lng":-105.01916,"retail":1,"medical":1,"notes":"","cartodb_id":39,"created_at":"2015-01-28T23:30:45Z","updated_at":"2015-01-28T23:30:45Z"}},{"type":"Feature","geometry":{"type":"Point","coordinates":[-107.789977,38.344785]},"properties":{"name":"Green Meadows Dispensary Llc","dba":"","address":"23360 South Highway 550","city":"Montrose","state":"CO","lat":38.3447849,"lng":-107.7899773,"retail":0,"medical":1,"notes":"","cartodb_id":40,"created_at":"2015-01-28T23:30:45Z","updated_at":"2015-01-28T23:30:45Z"}},{"type":"Feature","geometry":{"type":"Point","coordinates":[-104.99934,39.613212]},"properties":{"name":"I & S Llc","dba":"Cannamart","address":"1086 West Littleton Boulevard","city":"Littleton","state":"CO","lat":39.61321163,"lng":-104.9993398,"retail":0,"medical":1,"notes":"","cartodb_id":41,"created_at":"2015-01-28T23:30:45Z","updated_at":"2015-01-28T23:30:45Z"}},{"type":"Feature","geometry":{"type":"Point","coordinates":[-104.866169,39.740472]},"properties":{"name":"Treatments Unlimited Llc","dba":"Altitude Aurora","address":"10455 E Colfax Ave","city":"Aurora","state":"CO","lat":39.7404719,"lng":-104.866169,"retail":1,"medical":0,"notes":"","cartodb_id":42,"created_at":"2015-01-28T23:30:45Z","updated_at":"2015-01-28T23:30:45Z"}},{"type":"Feature","geometry":{"type":"Point","coordinates":[-104.972121,39.746963]},"properties":{"name":"Compassionate Care Givers Inc","dba":"Cannabis Station","address":"1201 20th Street","city":"Denver","state":"CO","lat":39.746963,"lng":-104.972121,"retail":1,"medical":1,"notes":"","cartodb_id":43,"created_at":"2015-01-28T23:30:45Z","updated_at":"2015-01-28T23:30:45Z"}},{"type":"Feature","geometry":{"type":"Point","coordinates":[-105.025262,39.753721]},"properties":{"name":"Revtec Llc","dba":"","address":"2527 Federal Boulevard","city":"Denver","state":"CO","lat":39.75372129,"lng":-105.0252624,"retail":0,"medical":1,"notes":"","cartodb_id":44,"created_at":"2015-01-28T23:30:45Z","updated_at":"2015-01-28T23:30:45Z"}},{"type":"Feature","geometry":{"type":"Point","coordinates":[-105.856805,37.47358]},"properties":{"name":"Academy Of The Healing Arts Llc","dba":"High Valley Healing Alamosa","address":"0711 West Highway 160","city":"Alamosa","state":"CO","lat":37.4735797,"lng":-105.8568046,"retail":0,"medical":1,"notes":"","cartodb_id":45,"created_at":"2015-01-28T23:30:45Z","updated_at":"2015-01-28T23:30:45Z"}},{"type":"Feature","geometry":{"type":"Point","coordinates":[-104.809821,38.925789]},"properties":{"name":"Briargate Wellness Center Llc","dba":"","address":"890 Dublin Boulevard, Suite C","city":"Colorado Springs","state":"CO","lat":38.92578921,"lng":-104.8098207,"retail":0,"medical":1,"notes":"","cartodb_id":46,"created_at":"2015-01-28T23:30:45Z","updated_at":"2015-01-28T23:30:45Z"}},{"type":"Feature","geometry":{"type":"Point","coordinates":[-106.595202,39.643769]},"properties":{"name":"Mml Llc","dba":"","address":"0105 Edwards Village Boulevard E202","city":"Edwards","state":"CO","lat":39.64376897,"lng":-106.5952023,"retail":0,"medical":1,"notes":"","cartodb_id":47,"created_at":"2015-01-28T23:30:45Z","updated_at":"2015-01-28T23:30:45Z"}},{"type":"Feature","geometry":{"type":"Point","coordinates":[-104.857931,38.8443]},"properties":{"name":"Trichome Health Consultants","dba":"","address":"2117 West Colorado Avenue","city":"Colorado Springs","state":"CO","lat":38.84430041,"lng":-104.8579314,"retail":0,"medical":1,"notes":"","cartodb_id":48,"created_at":"2015-01-28T23:30:45Z","updated_at":"2015-01-28T23:30:45Z"}},{"type":"Feature","geometry":{"type":"Point","coordinates":[-105.428112,37.195859]},"properties":{"name":"La Casa CannaBis Inc","dba":"","address":"205 Main Street","city":"San Luis","state":"CO","lat":37.19585851,"lng":-105.4281118,"retail":0,"medical":1,"notes":"","cartodb_id":49,"created_at":"2015-01-28T23:30:45Z","updated_at":"2015-01-28T23:30:45Z"}},{"type":"Feature","geometry":{"type":"Point","coordinates":[-105.07739,40.507924]},"properties":{"name":"Green Medicals Wellness Center #5 Llc","dba":"Smokeys","address":"5740 S College Ave, Unit C","city":"Fort Collins","state":"CO","lat":40.5079243,"lng":-105.0773904,"retail":1,"medical":0,"notes":"","cartodb_id":50,"created_at":"2015-01-28T23:30:45Z","updated_at":"2015-01-28T23:30:45Z"}},{"type":"Feature","geometry":{"type":"Point","coordinates":[-105.16325,39.960896]},"properties":{"name":"Altermeds Llc","dba":"Starbuds","address":"1156 West Dillon Road, Unit 3","city":"Louisville","state":"CO","lat":39.96089608,"lng":-105.1632499,"retail":1,"medical":0,"notes":"","cartodb_id":51,"created_at":"2015-01-28T23:30:45Z","updated_at":"2015-01-28T23:30:45Z"}},{"type":"Feature","geometry":{"type":"Point","coordinates":[-106.088297,39.591416]},"properties":{"name":"Bioenergetic Healing Center Llc","dba":"","address":"842 North Summit Boulevard, Suite 13","city":"Frisco","state":"CO","lat":39.59141557,"lng":-106.0882973,"retail":1,"medical":1,"notes":"","cartodb_id":52,"created_at":"2015-01-28T23:30:45Z","updated_at":"2015-01-28T23:30:45Z"}},{"type":"Feature","geometry":{"type":"Point","coordinates":[-104.991408,39.711177]},"properties":{"name":"Wanna Llc","dba":"Sticky Buds Alameda","address":"183 West Alameda Avenue","city":"Denver","state":"CO","lat":39.71117662,"lng":-104.9914082,"retail":1,"medical":1,"notes":"","cartodb_id":53,"created_at":"2015-01-28T23:30:45Z","updated_at":"2015-01-28T23:30:45Z"}},{"type":"Feature","geometry":{"type":"Point","coordinates":[-104.825753,38.810521]},"properties":{"name":"Pikes Peak Alternative Health & Wellness Center Inc.","dba":"The 710 Club","address":"1605 South Tejon Street, Suite 101","city":"Colorado Springs","state":"CO","lat":38.81052087,"lng":-104.8257532,"retail":0,"medical":1,"notes":"","cartodb_id":54,"created_at":"2015-01-28T23:30:45Z","updated_at":"2015-01-28T23:30:45Z"}},{"type":"Feature","geometry":{"type":"Point","coordinates":[-104.930214,39.740118]},"properties":{"name":"Rme Group Llc","dba":"","address":"7739-7741 E Colfax Ave","city":"Denver","state":"CO","lat":39.74011761,"lng":-104.9302141,"retail":0,"medical":1,"notes":"","cartodb_id":55,"created_at":"2015-01-28T23:30:45Z","updated_at":"2015-01-28T23:30:45Z"}},{"type":"Feature","geometry":{"type":"Point","coordinates":[-105.092552,39.740256]},"properties":{"name":"Rocky Mountain Ways Llc","dba":"Good Meds Lakewood","address":"8420 West Colfax Avenue","city":"Lakewood","state":"CO","lat":39.74025574,"lng":-105.0925523,"retail":0,"medical":1,"notes":"","cartodb_id":56,"created_at":"2015-01-28T23:30:45Z","updated_at":"2015-01-28T23:30:45Z"}},{"type":"Feature","geometry":{"type":"Point","coordinates":[-105.489595,39.738989]},"properties":{"name":"Mountain Medicinals Inc","dba":"Mountain Medicinials Retail Center","address":"1800 Colorado Boulevard, #1","city":"Idaho Springs","state":"CO","lat":39.73898862,"lng":-105.489595,"retail":1,"medical":0,"notes":"","cartodb_id":57,"created_at":"2015-01-28T23:30:45Z","updated_at":"2015-01-28T23:30:45Z"}},{"type":"Feature","geometry":{"type":"Point","coordinates":[-104.814836,39.725615]},"properties":{"name":"Ajs Aurora Llc","dba":"Sweet Leaf","address":"15200 E 6th Ave","city":"Aurora","state":"CO","lat":39.725615,"lng":-104.8148362,"retail":1,"medical":0,"notes":"","cartodb_id":283,"created_at":"2015-01-28T23:30:45Z","updated_at":"2015-01-28T23:30:45Z"}},{"type":"Feature","geometry":{"type":"Point","coordinates":[-104.757501,38.837293]},"properties":{"name":"C^3 Colorado Springs Llc","dba":"Pure Intentions Wellness Center","address":"201 North Academy Boulevard","city":"Colorado Springs","state":"CO","lat":38.837293,"lng":-104.757501,"retail":0,"medical":1,"notes":"","cartodb_id":58,"created_at":"2015-01-28T23:30:45Z","updated_at":"2015-01-28T23:30:45Z"}},{"type":"Feature","geometry":{"type":"Point","coordinates":[-105.016159,39.61813]},"properties":{"name":"Green Mountain Care Group Llc","dba":"Green Mountain Care","address":"5423 South Prince Street","city":"Littleton","state":"CO","lat":39.6181305,"lng":-105.0161586,"retail":0,"medical":1,"notes":"","cartodb_id":59,"created_at":"2015-01-28T23:30:45Z","updated_at":"2015-01-28T23:30:45Z"}},{"type":"Feature","geometry":{"type":"Point","coordinates":[-104.992818,39.613173]},"properties":{"name":"Mother Natures Miracle Llc","dba":"","address":"315 West Littleton Boulevard","city":"Littleton","state":"CO","lat":39.61317298,"lng":-104.9928176,"retail":0,"medical":1,"notes":"","cartodb_id":60,"created_at":"2015-01-28T23:30:45Z","updated_at":"2015-01-28T23:30:45Z"}},{"type":"Feature","geometry":{"type":"Point","coordinates":[-105.11124,39.785437]},"properties":{"name":"Boulder County Caregivers Llc","dba":"The Ridge","address":"10185 West 49th Avenue","city":"Wheat Ridge","state":"CO","lat":39.7854369,"lng":-105.1112405,"retail":0,"medical":1,"notes":"","cartodb_id":61,"created_at":"2015-01-28T23:30:45Z","updated_at":"2015-01-28T23:30:45Z"}},{"type":"Feature","geometry":{"type":"Point","coordinates":[-104.951003,39.722385]},"properties":{"name":"Caregivers For Life Llc","dba":"","address":"310 Saint Paul Street","city":"Denver","state":"CO","lat":39.72238529,"lng":-104.9510025,"retail":1,"medical":1,"notes":"","cartodb_id":62,"created_at":"2015-01-28T23:30:45Z","updated_at":"2015-01-28T23:30:45Z"}},{"type":"Feature","geometry":{"type":"Point","coordinates":[-104.68889,38.324193]},"properties":{"name":"Colorado Cannabis Associates Llc","dba":"The Spot","address":"748 East Industrial Boulevard","city":"Pueblo West","state":"CO","lat":38.3241925,"lng":-104.6888898,"retail":1,"medical":0,"notes":"","cartodb_id":63,"created_at":"2015-01-28T23:30:45Z","updated_at":"2015-01-28T23:30:45Z"}},{"type":"Feature","geometry":{"type":"Point","coordinates":[-104.500541,37.169463]},"properties":{"name":"Southern Colorado Therapeutics","dba":"Southern Colorado Therapeutics","address":"1505 Santa Fe Trail Drive","city":"Trinidad","state":"CO","lat":37.1694632,"lng":-104.5005407,"retail":1,"medical":0,"notes":"","cartodb_id":64,"created_at":"2015-01-28T23:30:45Z","updated_at":"2015-01-28T23:30:45Z"}},{"type":"Feature","geometry":{"type":"Point","coordinates":[-104.989958,39.679268]},"properties":{"name":"Cnw Llc","dba":"Artisanal Medicinals","address":"2042 South Bannock Street","city":"Denver","state":"CO","lat":39.67926814,"lng":-104.989958,"retail":0,"medical":1,"notes":"","cartodb_id":65,"created_at":"2015-01-28T23:30:45Z","updated_at":"2015-01-28T23:30:45Z"}},{"type":"Feature","geometry":{"type":"Point","coordinates":[-105.074742,39.740313]},"properties":{"name":"Patients Choice Of Colorado Llc","dba":"Patients Choice Of Colorado","address":"7063 West Colfax Avenue","city":"Lakewood","state":"CO","lat":39.7403132,"lng":-105.0747425,"retail":0,"medical":1,"notes":"","cartodb_id":66,"created_at":"2015-01-28T23:30:45Z","updated_at":"2015-01-28T23:30:45Z"}},{"type":"Feature","geometry":{"type":"Point","coordinates":[-104.740593,38.809648]},"properties":{"name":"Cys Inc","dba":"","address":"1675 Jetwing Drive","city":"Colorado Springs","state":"CO","lat":38.809648,"lng":-104.7405932,"retail":0,"medical":1,"notes":"","cartodb_id":67,"created_at":"2015-01-28T23:30:45Z","updated_at":"2015-01-28T23:30:45Z"}},{"type":"Feature","geometry":{"type":"Point","coordinates":[-105.077135,40.604123]},"properties":{"name":"Green Medicals Wellness Center #5 Llc","dba":"Smokey'S","address":"5740 South College Avenue, Unit C","city":"Fort Collins","state":"CO","lat":40.60412332,"lng":-105.0771351,"retail":0,"medical":1,"notes":"","cartodb_id":68,"created_at":"2015-01-28T23:30:45Z","updated_at":"2015-01-28T23:30:45Z"}},{"type":"Feature","geometry":{"type":"Point","coordinates":[-104.874928,39.70835]},"properties":{"name":"F-Squared Industries Llc","dba":"Wellness Center Of Denver","address":"330 South Dayton","city":"Denver","state":"CO","lat":39.7083502,"lng":-104.8749278,"retail":1,"medical":0,"notes":"","cartodb_id":69,"created_at":"2015-01-28T23:30:45Z","updated_at":"2015-01-28T23:30:45Z"}},{"type":"Feature","geometry":{"type":"Point","coordinates":[-104.998565,39.714833]},"properties":{"name":"Karmaceuticals Llc","dba":"","address":"4 South Santa Fe Drive","city":"Denver","state":"CO","lat":39.71483254,"lng":-104.9985653,"retail":0,"medical":1,"notes":"","cartodb_id":70,"created_at":"2015-01-28T23:30:45Z","updated_at":"2015-01-28T23:30:45Z"}},{"type":"Feature","geometry":{"type":"Point","coordinates":[-106.817436,39.188515]},"properties":{"name":"Rjj Aspen Llc","dba":"Native Roots Aspen","address":"308 South Hunter Street","city":"Aspen","state":"CO","lat":39.18851533,"lng":-106.8174365,"retail":1,"medical":0,"notes":"","cartodb_id":71,"created_at":"2015-01-28T23:30:45Z","updated_at":"2015-01-28T23:30:45Z"}},{"type":"Feature","geometry":{"type":"Point","coordinates":[-104.825593,38.874193]},"properties":{"name":"Wellness Centers Of Colorado Llc","dba":"A-Wellness Centers","address":"2918 Wood Avenue","city":"Colorado Springs","state":"CO","lat":38.87419305,"lng":-104.8255928,"retail":0,"medical":1,"notes":"","cartodb_id":72,"created_at":"2015-01-28T23:30:45Z","updated_at":"2015-01-28T23:30:45Z"}},{"type":"Feature","geometry":{"type":"Point","coordinates":[-104.497162,37.191062]},"properties":{"name":"Trinidads Higher Calling U Llc","dba":"","address":"1000 INDEPENDENCE ROAD","city":"Trinidad","state":"CO","lat":37.191062,"lng":-104.497162,"retail":1,"medical":0,"notes":"","cartodb_id":73,"created_at":"2015-01-28T23:30:45Z","updated_at":"2015-01-28T23:30:45Z"}},{"type":"Feature","geometry":{"type":"Point","coordinates":[-104.775527,38.904381]},"properties":{"name":"Natures Way Wellness Center Inc","dba":"High Country Healing 5","address":"5012 North Academy Boulevard","city":"Colorado Springs","state":"CO","lat":38.904381,"lng":-104.775527,"retail":0,"medical":1,"notes":"","cartodb_id":74,"created_at":"2015-01-28T23:30:45Z","updated_at":"2015-01-28T23:30:45Z"}},{"type":"Feature","geometry":{"type":"Point","coordinates":[-104.938365,39.707392]},"properties":{"name":"Reserve1 Llc","dba":"Reserve1","address":"4182 East Virginia Avenue, Unit C","city":"Glendale","state":"CO","lat":39.70739184,"lng":-104.9383654,"retail":1,"medical":0,"notes":"","cartodb_id":75,"created_at":"2015-01-28T23:30:45Z","updated_at":"2015-01-28T23:30:45Z"}},{"type":"Feature","geometry":{"type":"Point","coordinates":[-105.542417,39.795305]},"properties":{"name":"Milagro Wellness Healing Llc","dba":"Mind Body Spirit 2","address":"2237 County Road 314","city":"Idaho Springs","state":"CO","lat":39.7953047,"lng":-105.5424172,"retail":0,"medical":1,"notes":"","cartodb_id":76,"created_at":"2015-01-28T23:30:45Z","updated_at":"2015-01-28T23:30:45Z"}},{"type":"Feature","geometry":{"type":"Point","coordinates":[-107.894994,37.275436]},"properties":{"name":"Mhsdgo Llc","dba":"Mhs","address":"789 Tech Center Drive, Unit E","city":"Durango","state":"CO","lat":37.275436,"lng":-107.894994,"retail":0,"medical":1,"notes":"","cartodb_id":77,"created_at":"2015-01-28T23:30:45Z","updated_at":"2015-01-28T23:30:45Z"}},{"type":"Feature","geometry":{"type":"Point","coordinates":[-105.816312,39.945682]},"properties":{"name":"Serene Wellness Fraser Llc","dba":"","address":"228 Byers Avenue","city":"Fraser","state":"CO","lat":39.94568186,"lng":-105.816312,"retail":1,"medical":1,"notes":"","cartodb_id":78,"created_at":"2015-01-28T23:30:45Z","updated_at":"2015-01-28T23:30:45Z"}},{"type":"Feature","geometry":{"type":"Point","coordinates":[-104.757053,38.889693]},"properties":{"name":"Kind Therapeutics Inc","dba":"","address":"1222 North Academy Boulevard","city":"Colorado Springs","state":"CO","lat":38.88969314,"lng":-104.7570529,"retail":0,"medical":1,"notes":"","cartodb_id":79,"created_at":"2015-01-28T23:30:45Z","updated_at":"2015-01-28T23:30:45Z"}},{"type":"Feature","geometry":{"type":"Point","coordinates":[-106.818487,39.187145]},"properties":{"name":"Colorado Medical Marijuana Supply Inc","dba":"Leaf Aspen","address":"555 East Durant Avenue, Suite 2E","city":"Aspen","state":"CO","lat":39.18714547,"lng":-106.8184868,"retail":0,"medical":1,"notes":"","cartodb_id":80,"created_at":"2015-01-28T23:30:45Z","updated_at":"2015-01-28T23:30:45Z"}},{"type":"Feature","geometry":{"type":"Point","coordinates":[-104.536632,38.274257]},"properties":{"name":"Herikat Inc","dba":"Rose Bud Productions","address":"27050 East US Hwy 50","city":"Pueblo","state":"CO","lat":38.2742571,"lng":-104.5366321,"retail":1,"medical":0,"notes":"","cartodb_id":81,"created_at":"2015-01-28T23:30:45Z","updated_at":"2015-01-28T23:30:45Z"}},{"type":"Feature","geometry":{"type":"Point","coordinates":[-107.080133,37.256371]},"properties":{"name":"J And J Enterprises Inc","dba":"Pagosa Organic Therapeutics","address":"298 Bastille Drive, Suite B1","city":"Pagosa Springs","state":"CO","lat":37.256371,"lng":-107.080133,"retail":1,"medical":0,"notes":"","cartodb_id":82,"created_at":"2015-01-28T23:30:45Z","updated_at":"2015-01-28T23:30:45Z"}},{"type":"Feature","geometry":{"type":"Point","coordinates":[-104.888528,38.85701]},"properties":{"name":"Reserve1 Manitou Llc","dba":"Reserve1","address":"27 Manitou Avenue","city":"Manitou Springs","state":"CO","lat":38.85701,"lng":-104.888528,"retail":1,"medical":0,"notes":"","cartodb_id":83,"created_at":"2015-01-28T23:30:45Z","updated_at":"2015-01-28T23:30:45Z"}},{"type":"Feature","geometry":{"type":"Point","coordinates":[-104.99974,39.706657]},"properties":{"name":"Cannabis King Llc","dba":"Greenwerkz","address":"1131 West Custer Place, Suite A","city":"Denver","state":"CO","lat":39.70665729,"lng":-104.99974,"retail":0,"medical":1,"notes":"","cartodb_id":84,"created_at":"2015-01-28T23:30:45Z","updated_at":"2015-01-28T23:30:45Z"}},{"type":"Feature","geometry":{"type":"Point","coordinates":[-104.691144,40.393854]},"properties":{"name":"Livwell I Llc","dba":"","address":"2647 8th Avenue, Unit B","city":"Garden City","state":"CO","lat":40.393854,"lng":-104.6911438,"retail":1,"medical":0,"notes":"","cartodb_id":85,"created_at":"2015-01-28T23:30:45Z","updated_at":"2015-01-28T23:30:45Z"}},{"type":"Feature","geometry":{"type":"Point","coordinates":[-104.990927,39.904627]},"properties":{"name":"Botanacare Llc","dba":"Botanacare 21+","address":"11450 Cherokee Street, #A5, A6, A7","city":"Northglenn","state":"CO","lat":39.904627,"lng":-104.990927,"retail":1,"medical":0,"notes":"","cartodb_id":86,"created_at":"2015-01-28T23:30:45Z","updated_at":"2015-01-28T23:30:45Z"}},{"type":"Feature","geometry":{"type":"Point","coordinates":[-104.778043,38.84024]},"properties":{"name":"Dr Releaf Inc","dba":"Dr. Releaf Inc","address":"2639 East Willamette Avenue","city":"Colorado Springs","state":"CO","lat":38.84024,"lng":-104.778043,"retail":0,"medical":1,"notes":"","cartodb_id":87,"created_at":"2015-01-28T23:30:45Z","updated_at":"2015-01-28T23:30:45Z"}},{"type":"Feature","geometry":{"type":"Point","coordinates":[-105.246598,38.417179]},"properties":{"name":"Rocky Mountain Cannabis Inc","dba":"","address":"465 Valley Road","city":"Canon City","state":"CO","lat":38.41717873,"lng":-105.2465981,"retail":0,"medical":1,"notes":"","cartodb_id":88,"created_at":"2015-01-28T23:30:45Z","updated_at":"2015-01-28T23:30:45Z"}},{"type":"Feature","geometry":{"type":"Point","coordinates":[-106.81811,39.188126]},"properties":{"name":"Cooper Mason Ventures Llc","dba":"Silverpeak Apothecary","address":"520 East Cooper Avenue, Unit LL2 & LL3","city":"Aspen","state":"CO","lat":39.1881264,"lng":-106.8181104,"retail":1,"medical":0,"notes":"","cartodb_id":89,"created_at":"2015-01-28T23:30:45Z","updated_at":"2015-01-28T23:30:45Z"}},{"type":"Feature","geometry":{"type":"Point","coordinates":[-104.742432,38.338571]},"properties":{"name":"Organic Solutions Inc","dba":"","address":"74 North McCulloch Boulevard, Suite 120","city":"Pueblo West","state":"CO","lat":38.33857092,"lng":-104.7424321,"retail":0,"medical":1,"notes":"","cartodb_id":90,"created_at":"2015-01-28T23:30:45Z","updated_at":"2015-01-28T23:30:45Z"}},{"type":"Feature","geometry":{"type":"Point","coordinates":[-105.956484,40.14437]},"properties":{"name":"Mmk Limited","dba":"Grand Life Solutions","address":"62429 US Highway 40, Unit 3","city":"Granby","state":"CO","lat":40.1443702,"lng":-105.9564836,"retail":1,"medical":0,"notes":"","cartodb_id":91,"created_at":"2015-01-28T23:30:45Z","updated_at":"2015-01-28T23:30:45Z"}},{"type":"Feature","geometry":{"type":"Point","coordinates":[-104.757102,38.878229]},"properties":{"name":"Cc Group","dba":"Canna Caregivers","address":"3220 North Academy Boulevard, Suite 4","city":"Colorado Springs","state":"CO","lat":38.87822948,"lng":-104.757102,"retail":0,"medical":1,"notes":"","cartodb_id":92,"created_at":"2015-01-28T23:30:45Z","updated_at":"2015-01-28T23:30:45Z"}},{"type":"Feature","geometry":{"type":"Point","coordinates":[-103.83202,40.269135]},"properties":{"name":"Larsen Group Llc","dba":"","address":"130 Maine Street, Unit B","city":"Log Lane Village","state":"CO","lat":40.26913534,"lng":-103.8320201,"retail":1,"medical":0,"notes":"","cartodb_id":93,"created_at":"2015-01-28T23:30:45Z","updated_at":"2015-01-28T23:30:45Z"}},{"type":"Feature","geometry":{"type":"Point","coordinates":[-106.98291,38.867043]},"properties":{"name":"Pure Industries Llc","dba":"Soma Wellness Center","address":"423 Belleview Avenue, Unit 1","city":"Crested Butte","state":"CO","lat":38.86704278,"lng":-106.9829098,"retail":1,"medical":0,"notes":"","cartodb_id":94,"created_at":"2015-01-28T23:30:45Z","updated_at":"2015-01-28T23:30:45Z"}},{"type":"Feature","geometry":{"type":"Point","coordinates":[-107.880595,37.273771]},"properties":{"name":"The Acceptus Group Llc","dba":"Colorado Grow Company","address":"965 1/2 MAIN AVENUE","city":"Durango","state":"CO","lat":37.27377088,"lng":-107.8805945,"retail":1,"medical":0,"notes":"","cartodb_id":95,"created_at":"2015-01-28T23:30:45Z","updated_at":"2015-01-28T23:30:45Z"}},{"type":"Feature","geometry":{"type":"Point","coordinates":[-104.86972,39.738494]},"properties":{"name":"Starbuds Aurora Llc","dba":"Starbuds","address":"1408 Del Mar Pkwy","city":"Aurora","state":"CO","lat":39.73849443,"lng":-104.8697199,"retail":1,"medical":0,"notes":"","cartodb_id":96,"created_at":"2015-01-28T23:30:45Z","updated_at":"2015-01-28T23:30:45Z"}},{"type":"Feature","geometry":{"type":"Point","coordinates":[-104.800247,38.798445]},"properties":{"name":"Grow Life Llc","dba":"","address":"1516 Dustry Drive","city":"Colorado Springs","state":"CO","lat":38.79844536,"lng":-104.8002471,"retail":0,"medical":1,"notes":"","cartodb_id":97,"created_at":"2015-01-28T23:30:45Z","updated_at":"2015-01-28T23:30:45Z"}},{"type":"Feature","geometry":{"type":"Point","coordinates":[-105.281005,40.080064]},"properties":{"name":"Karing Kind Llc","dba":"","address":"5854 Rawhide Court, Suite C","city":"Boulder","state":"CO","lat":40.08006422,"lng":-105.2810047,"retail":1,"medical":0,"notes":"","cartodb_id":98,"created_at":"2015-01-28T23:30:45Z","updated_at":"2015-01-28T23:30:45Z"}},{"type":"Feature","geometry":{"type":"Point","coordinates":[-105.011809,39.762021]},"properties":{"name":"The Releaf Center Llc","dba":"","address":"2000 W 32ND AVE","city":"Denver","state":"CO","lat":39.762021,"lng":-105.011809,"retail":0,"medical":1,"notes":"","cartodb_id":99,"created_at":"2015-01-28T23:30:45Z","updated_at":"2015-01-28T23:30:45Z"}},{"type":"Feature","geometry":{"type":"Point","coordinates":[-107.015315,39.349731]},"properties":{"name":"United Patients Of America Llc","dba":"Aspen Roaring Fork Wellness","address":"24505 Highway 82","city":"Basalt","state":"CO","lat":39.3497309,"lng":-107.0153153,"retail":0,"medical":1,"notes":"","cartodb_id":100,"created_at":"2015-01-28T23:30:45Z","updated_at":"2015-01-28T23:30:45Z"}},{"type":"Feature","geometry":{"type":"Point","coordinates":[-105.705016,39.692932]},"properties":{"name":"The Green Solution Llc","dba":"","address":"645 Water St","city":"Silver Plume","state":"CO","lat":39.69293243,"lng":-105.7050164,"retail":0,"medical":1,"notes":"","cartodb_id":101,"created_at":"2015-01-28T23:30:45Z","updated_at":"2015-01-28T23:30:45Z"}},{"type":"Feature","geometry":{"type":"Point","coordinates":[-104.990021,39.743516]},"properties":{"name":"Js Investments Llc","dba":"Euflora","address":"401 16th Street","city":"Denver","state":"CO","lat":39.743516,"lng":-104.990021,"retail":1,"medical":1,"notes":"","cartodb_id":284,"created_at":"2015-01-28T23:30:45Z","updated_at":"2015-01-28T23:30:45Z"}},{"type":"Feature","geometry":{"type":"Point","coordinates":[-104.763469,38.84708]},"properties":{"name":"Happy Buddha Wellness Center Llc","dba":"","address":"3612 Galley Road, Unit C","city":"Colorado Springs","state":"CO","lat":38.84708015,"lng":-104.7634693,"retail":0,"medical":1,"notes":"","cartodb_id":102,"created_at":"2015-01-28T23:30:45Z","updated_at":"2015-01-28T23:30:45Z"}},{"type":"Feature","geometry":{"type":"Point","coordinates":[-104.987542,39.684409]},"properties":{"name":"Mmst Llc","dba":"Wellspring Collective","address":"1724 South Broadway","city":"Denver","state":"CO","lat":39.68440876,"lng":-104.9875423,"retail":1,"medical":1,"notes":"","cartodb_id":103,"created_at":"2015-01-28T23:30:45Z","updated_at":"2015-01-28T23:30:45Z"}},{"type":"Feature","geometry":{"type":"Point","coordinates":[-104.987476,39.691733]},"properties":{"name":"Little Green Pharmacy Inc","dba":"","address":"1331 South Broadway","city":"Denver","state":"CO","lat":39.69173333,"lng":-104.9874763,"retail":0,"medical":1,"notes":"","cartodb_id":104,"created_at":"2015-01-28T23:30:45Z","updated_at":"2015-01-28T23:30:45Z"}},{"type":"Feature","geometry":{"type":"Point","coordinates":[-105.0483,39.769361]},"properties":{"name":"At Home Remedies Inc","dba":"","address":"4735 West 38th Avenue","city":"Denver","state":"CO","lat":39.76936055,"lng":-105.0483002,"retail":1,"medical":1,"notes":"","cartodb_id":105,"created_at":"2015-01-28T23:30:45Z","updated_at":"2015-01-28T23:30:45Z"}},{"type":"Feature","geometry":{"type":"Point","coordinates":[-104.994833,39.76677]},"properties":{"name":"Denco Llc","dba":"","address":"3460 Park Avenue West, Unit D","city":"Denver","state":"CO","lat":39.76677,"lng":-104.9948326,"retail":1,"medical":1,"notes":"","cartodb_id":106,"created_at":"2015-01-28T23:30:45Z","updated_at":"2015-01-28T23:30:45Z"}},{"type":"Feature","geometry":{"type":"Point","coordinates":[-104.506942,37.171529]},"properties":{"name":"M&M Distributing Llc","dba":"","address":"422 North Commercial","city":"Trinidad","state":"CO","lat":37.1715289,"lng":-104.5069418,"retail":0,"medical":1,"notes":"","cartodb_id":107,"created_at":"2015-01-28T23:30:45Z","updated_at":"2015-01-28T23:30:45Z"}},{"type":"Feature","geometry":{"type":"Point","coordinates":[-105.36173,38.984259]},"properties":{"name":"Granny Hash Llc","dba":"Grannys High Altitude Sprout House","address":"38321 Highway 24","city":"Lake George","state":"CO","lat":38.984259,"lng":-105.36173,"retail":1,"medical":0,"notes":"","cartodb_id":108,"created_at":"2015-01-28T23:30:45Z","updated_at":"2015-01-28T23:30:45Z"}},{"type":"Feature","geometry":{"type":"Point","coordinates":[-107.54852,40.516542]},"properties":{"name":"Craig Apothecary","dba":"Craig Apothecary","address":"611 Breeze Street","city":"Craig","state":"CO","lat":40.51654194,"lng":-107.54852,"retail":0,"medical":1,"notes":"","cartodb_id":109,"created_at":"2015-01-28T23:30:45Z","updated_at":"2015-01-28T23:30:45Z"}},{"type":"Feature","geometry":{"type":"Point","coordinates":[-104.815108,38.329434]},"properties":{"name":"Hashish House Llc","dba":"Hashish House","address":"428 South McCulloch Boulevard","city":"Pueblo West","state":"CO","lat":38.329434,"lng":-104.8151081,"retail":1,"medical":0,"notes":"","cartodb_id":110,"created_at":"2015-01-28T23:30:45Z","updated_at":"2015-01-28T23:30:45Z"}},{"type":"Feature","geometry":{"type":"Point","coordinates":[-104.863283,39.782401]},"properties":{"name":"Metropolis Medical Llc","dba":"Metropolis Medical","address":"4600 Ironton Street","city":"Denver","state":"CO","lat":39.78240109,"lng":-104.8632828,"retail":1,"medical":1,"notes":"","cartodb_id":111,"created_at":"2015-01-28T23:30:45Z","updated_at":"2015-01-28T23:30:45Z"}},{"type":"Feature","geometry":{"type":"Point","coordinates":[-104.964704,39.772192]},"properties":{"name":"Tmed Llc","dba":"Tmed","address":"3944 High St.","city":"Denver","state":"CO","lat":39.7721921,"lng":-104.9647041,"retail":1,"medical":0,"notes":"","cartodb_id":112,"created_at":"2015-01-28T23:30:45Z","updated_at":"2015-01-28T23:30:45Z"}},{"type":"Feature","geometry":{"type":"Point","coordinates":[-107.847882,37.298768]},"properties":{"name":"Durango Alternative Llc","dba":"Rocky Mountain High","address":"48 CR 250, Units 106 &108","city":"Durango","state":"CO","lat":37.298768,"lng":-107.847882,"retail":0,"medical":1,"notes":"","cartodb_id":113,"created_at":"2015-01-28T23:30:45Z","updated_at":"2015-01-28T23:30:45Z"}},{"type":"Feature","geometry":{"type":"Point","coordinates":[-105.040357,39.769452]},"properties":{"name":"3b 38 Llc","dba":"Buddy Boy","address":"4012 West 38th Avenue","city":"Denver","state":"CO","lat":39.76945206,"lng":-105.0403567,"retail":0,"medical":1,"notes":"","cartodb_id":114,"created_at":"2015-01-28T23:30:45Z","updated_at":"2015-01-28T23:30:45Z"}},{"type":"Feature","geometry":{"type":"Point","coordinates":[-105.135518,39.786376]},"properties":{"name":"Medical Mj Supply Llc","dba":"Bestcoloradomeds.Org","address":"4845 Van Gordon","city":"Wheat Ridge","state":"CO","lat":39.78637622,"lng":-105.135518,"retail":1,"medical":0,"notes":"","cartodb_id":115,"created_at":"2015-01-28T23:30:45Z","updated_at":"2015-01-28T23:30:45Z"}},{"type":"Feature","geometry":{"type":"Point","coordinates":[-104.774522,38.841526]},"properties":{"name":"Game 7 Llc","dba":"Pink House Colorado Springs","address":"700 Juanita Street","city":"Colorado Springs","state":"CO","lat":38.84152591,"lng":-104.7745223,"retail":0,"medical":1,"notes":"","cartodb_id":116,"created_at":"2015-01-28T23:30:45Z","updated_at":"2015-01-28T23:30:45Z"}},{"type":"Feature","geometry":{"type":"Point","coordinates":[-104.789549,38.83847]},"properties":{"name":"Mile High Remedies Llc","dba":"Doctor'S Orders","address":"2106 East Boulder Street","city":"Colorado Springs","state":"CO","lat":38.8384705,"lng":-104.7895488,"retail":0,"medical":1,"notes":"","cartodb_id":117,"created_at":"2015-01-28T23:30:45Z","updated_at":"2015-01-28T23:30:45Z"}},{"type":"Feature","geometry":{"type":"Point","coordinates":[-105.022661,39.711157]},"properties":{"name":"Alcc Llc","dba":"Next Harvest Wellness","address":"2748 West Alameda Avenue","city":"Denver","state":"CO","lat":39.71115712,"lng":-105.0226608,"retail":1,"medical":1,"notes":"","cartodb_id":118,"created_at":"2015-01-28T23:30:45Z","updated_at":"2015-01-28T23:30:45Z"}},{"type":"Feature","geometry":{"type":"Point","coordinates":[-104.705394,38.321295]},"properties":{"name":"Gg-Mmd Inc","dba":"The Mesa","address":"920 East Spaulding Avenue","city":"Pueblo West","state":"CO","lat":38.321295,"lng":-104.705394,"retail":0,"medical":1,"notes":"","cartodb_id":119,"created_at":"2015-01-28T23:30:45Z","updated_at":"2015-01-28T23:30:45Z"}},{"type":"Feature","geometry":{"type":"Point","coordinates":[-104.97778,39.903863]},"properties":{"name":"Rocky Mountain Retail Management Llc","dba":"Rocky Mountain High","address":"11455 Washington Street","city":"Northglenn","state":"CO","lat":39.90386347,"lng":-104.9777805,"retail":0,"medical":1,"notes":"","cartodb_id":120,"created_at":"2015-01-28T23:30:45Z","updated_at":"2015-01-28T23:30:45Z"}},{"type":"Feature","geometry":{"type":"Point","coordinates":[-106.290591,39.245218]},"properties":{"name":"Jem Dutch Acres Llc","dba":"Earl'S","address":"115 Harrison Avenue","city":"Leadville","state":"CO","lat":39.24521786,"lng":-106.2905906,"retail":1,"medical":0,"notes":"","cartodb_id":121,"created_at":"2015-01-28T23:30:45Z","updated_at":"2015-01-28T23:30:45Z"}},{"type":"Feature","geometry":{"type":"Point","coordinates":[-104.987567,39.682333]},"properties":{"name":"Ganja Gourmet Llc","dba":"","address":"1810 South Broadway","city":"Denver","state":"CO","lat":39.68233251,"lng":-104.9875666,"retail":1,"medical":1,"notes":"","cartodb_id":122,"created_at":"2015-01-28T23:30:45Z","updated_at":"2015-01-28T23:30:45Z"}},{"type":"Feature","geometry":{"type":"Point","coordinates":[-104.982712,39.740029]},"properties":{"name":"Sweetwater Partners Llc","dba":"Good Chemistry","address":"330 East Colfax Avenue","city":"Denver","state":"CO","lat":39.74002943,"lng":-104.9827118,"retail":1,"medical":1,"notes":"","cartodb_id":123,"created_at":"2015-01-28T23:30:45Z","updated_at":"2015-01-28T23:30:45Z"}},{"type":"Feature","geometry":{"type":"Point","coordinates":[-104.840453,38.76546]},"properties":{"name":"Jp Wellness Llc","dba":"","address":"1741 South Academy Boulevard","city":"Colorado Springs","state":"CO","lat":38.76546037,"lng":-104.8404527,"retail":0,"medical":1,"notes":"","cartodb_id":124,"created_at":"2015-01-28T23:30:45Z","updated_at":"2015-01-28T23:30:45Z"}},{"type":"Feature","geometry":{"type":"Point","coordinates":[-105.056352,39.776602]},"properties":{"name":"Medicinal Wellness Center Llc","dba":"","address":"5430 West 44th Avenue","city":"Mountain View","state":"CO","lat":39.77660214,"lng":-105.0563521,"retail":1,"medical":1,"notes":"","cartodb_id":125,"created_at":"2015-01-28T23:30:45Z","updated_at":"2015-01-28T23:30:45Z"}},{"type":"Feature","geometry":{"type":"Point","coordinates":[-108.353256,39.111594]},"properties":{"name":"Colorado Alternative Health Care Ltd","dba":"Palisades Health Care","address":"125 Peach Avenue, Suite B","city":"Palisade","state":"CO","lat":39.11159407,"lng":-108.3532561,"retail":0,"medical":1,"notes":"","cartodb_id":126,"created_at":"2015-01-28T23:30:45Z","updated_at":"2015-01-28T23:30:45Z"}},{"type":"Feature","geometry":{"type":"Point","coordinates":[-104.757052,38.889042]},"properties":{"name":"Rocky Road Remedies Llc","dba":"Rocky Road North","address":"3995 North Academy Boulevard","city":"Colorado Springs","state":"CO","lat":38.88904233,"lng":-104.7570522,"retail":0,"medical":1,"notes":"","cartodb_id":127,"created_at":"2015-01-28T23:30:45Z","updated_at":"2015-01-28T23:30:45Z"}},{"type":"Feature","geometry":{"type":"Point","coordinates":[-105.002498,39.71304]},"properties":{"name":"Buddies Wellness Llc","dba":"","address":"1270 West Cedar Avenue, Suite A","city":"Denver","state":"CO","lat":39.71303971,"lng":-105.0024983,"retail":1,"medical":1,"notes":"","cartodb_id":128,"created_at":"2015-01-28T23:30:45Z","updated_at":"2015-01-28T23:30:45Z"}},{"type":"Feature","geometry":{"type":"Point","coordinates":[-105.811129,39.942778]},"properties":{"name":"Growhouse Fraser Llc","dba":"Growhouse Fraser","address":"535 Zerex Street, Suite B-203","city":"Fraser","state":"CO","lat":39.9427784,"lng":-105.8111286,"retail":1,"medical":0,"notes":"","cartodb_id":129,"created_at":"2015-01-28T23:30:45Z","updated_at":"2015-01-28T23:30:45Z"}},{"type":"Feature","geometry":{"type":"Point","coordinates":[-105.288,40.015165]},"properties":{"name":"Colorado Healing Llc","dba":"Headquarters Cannabis Co","address":"537 Canyon Boulevard","city":"Boulder","state":"CO","lat":40.01516469,"lng":-105.2879997,"retail":1,"medical":0,"notes":"","cartodb_id":130,"created_at":"2015-01-28T23:30:45Z","updated_at":"2015-01-28T23:30:45Z"}},{"type":"Feature","geometry":{"type":"Point","coordinates":[-105.025243,39.653411]},"properties":{"name":"Herbal Options Llc","dba":"Good Meds","address":"3431 South Federal Boulevard, Suite G","city":"Englewood","state":"CO","lat":39.65341107,"lng":-105.0252431,"retail":0,"medical":1,"notes":"","cartodb_id":131,"created_at":"2015-01-28T23:30:45Z","updated_at":"2015-01-28T23:30:45Z"}},{"type":"Feature","geometry":{"type":"Point","coordinates":[-105.244123,39.978908]},"properties":{"name":"Mmj America Inc","dba":"Boulder Mmj","address":"1909 Broadway Street, Suite LL","city":"Boulder","state":"CO","lat":39.97890833,"lng":-105.2441227,"retail":0,"medical":1,"notes":"","cartodb_id":132,"created_at":"2015-01-28T23:30:45Z","updated_at":"2015-01-28T23:30:45Z"}},{"type":"Feature","geometry":{"type":"Point","coordinates":[-107.219961,39.409499]},"properties":{"name":"Cmed Llc","dba":"Colomed Center","address":"615 Buggy Circle","city":"Carbondale","state":"CO","lat":39.40949855,"lng":-107.2199611,"retail":0,"medical":1,"notes":"","cartodb_id":133,"created_at":"2015-01-28T23:30:45Z","updated_at":"2015-01-28T23:30:45Z"}},{"type":"Feature","geometry":{"type":"Point","coordinates":[-106.061682,39.282579]},"properties":{"name":"Hch2 Llc","dba":"","address":"40 South Main Street","city":"Alma","state":"CO","lat":39.28257922,"lng":-106.0616821,"retail":1,"medical":1,"notes":"","cartodb_id":134,"created_at":"2015-01-28T23:30:45Z","updated_at":"2015-01-28T23:30:45Z"}},{"type":"Feature","geometry":{"type":"Point","coordinates":[-104.987501,39.717984]},"properties":{"name":"Herban Llc","dba":"Herban Medicinals","address":"70 Broadway, Suite 50","city":"Denver","state":"CO","lat":39.71798408,"lng":-104.9875008,"retail":1,"medical":1,"notes":"","cartodb_id":135,"created_at":"2015-01-28T23:30:45Z","updated_at":"2015-01-28T23:30:45Z"}},{"type":"Feature","geometry":{"type":"Point","coordinates":[-106.597594,39.643156]},"properties":{"name":"Berlin International Llc","dba":"Cannika","address":"210 Edwards Village Boulevard, Suite D109","city":"Edwards","state":"CO","lat":39.64315623,"lng":-106.5975943,"retail":0,"medical":1,"notes":"","cartodb_id":136,"created_at":"2015-01-28T23:30:45Z","updated_at":"2015-01-28T23:30:45Z"}},{"type":"Feature","geometry":{"type":"Point","coordinates":[-106.05208,39.510632]},"properties":{"name":"Soulshine Medical Consulting Llc","dba":"","address":"1805 Airport Road, Unit B3","city":"Breckenridge","state":"CO","lat":39.51063239,"lng":-106.0520798,"retail":0,"medical":1,"notes":"","cartodb_id":137,"created_at":"2015-01-28T23:30:45Z","updated_at":"2015-01-28T23:30:45Z"}},{"type":"Feature","geometry":{"type":"Point","coordinates":[-107.881212,37.271857]},"properties":{"name":"Indoor Horticulture Centers","dba":"Sante Alternative Wellness","address":"742 1/2 Main Avenue","city":"Durango","state":"CO","lat":37.27185671,"lng":-107.8812119,"retail":1,"medical":1,"notes":"","cartodb_id":138,"created_at":"2015-01-28T23:30:45Z","updated_at":"2015-01-28T23:30:45Z"}},{"type":"Feature","geometry":{"type":"Point","coordinates":[-104.995701,39.668763]},"properties":{"name":"Rjj Sheridan Llc","dba":"Native Roots South","address":"2645 S Santa Fe Dr Unit D&E","city":"Denver","state":"CO","lat":39.6687631,"lng":-104.9957007,"retail":0,"medical":1,"notes":"","cartodb_id":139,"created_at":"2015-01-28T23:30:45Z","updated_at":"2015-01-28T23:30:45Z"}},{"type":"Feature","geometry":{"type":"Point","coordinates":[-104.929219,39.780126]},"properties":{"name":"Denco Llc","dba":"","address":"5155 East 46th Avenue","city":"Denver","state":"CO","lat":39.78012633,"lng":-104.9292194,"retail":0,"medical":1,"notes":"","cartodb_id":140,"created_at":"2015-01-28T23:30:45Z","updated_at":"2015-01-28T23:30:45Z"}},{"type":"Feature","geometry":{"type":"Point","coordinates":[-104.993623,39.7739]},"properties":{"name":"Mgi Inc","dba":"The Grass Station","address":"4125 Elati Street","city":"Denver","state":"CO","lat":39.77390029,"lng":-104.9936232,"retail":1,"medical":0,"notes":"","cartodb_id":141,"created_at":"2015-01-28T23:30:45Z","updated_at":"2015-01-28T23:30:45Z"}},{"type":"Feature","geometry":{"type":"Point","coordinates":[-104.990143,39.752125]},"properties":{"name":"Mile High Medical Llc","dba":"Mmj America Downtown","address":"2042 Arapahoe Street","city":"Denver","state":"CO","lat":39.75212457,"lng":-104.9901431,"retail":1,"medical":1,"notes":"","cartodb_id":142,"created_at":"2015-01-28T23:30:45Z","updated_at":"2015-01-28T23:30:45Z"}},{"type":"Feature","geometry":{"type":"Point","coordinates":[-106.061578,39.627083]},"properties":{"name":"Alpenglow Botanicals Llc","dba":"Alpenglow Botanicals","address":"765 W Anemone Trl, Unit C","city":"Dillon","state":"CO","lat":39.62708311,"lng":-106.061578,"retail":1,"medical":0,"notes":"","cartodb_id":143,"created_at":"2015-01-28T23:30:45Z","updated_at":"2015-01-28T23:30:45Z"}},{"type":"Feature","geometry":{"type":"Point","coordinates":[-104.868241,39.654121]},"properties":{"name":"Serendipity Enterprises Inc","dba":"Satica","address":"3480 S Galena Street,  B-4","city":"Denver","state":"CO","lat":39.654121,"lng":-104.868241,"retail":0,"medical":1,"notes":"","cartodb_id":144,"created_at":"2015-01-28T23:30:45Z","updated_at":"2015-01-28T23:30:45Z"}},{"type":"Feature","geometry":{"type":"Point","coordinates":[-105.258227,39.998174]},"properties":{"name":"Bushes Llc","dba":"","address":"3005 28th Street","city":"Boulder","state":"CO","lat":39.99817353,"lng":-105.2582271,"retail":1,"medical":1,"notes":"","cartodb_id":145,"created_at":"2015-01-28T23:30:45Z","updated_at":"2015-01-28T23:30:45Z"}},{"type":"Feature","geometry":{"type":"Point","coordinates":[-104.998449,39.720509]},"properties":{"name":"Nature Med Inc","dba":"Kind-Meds","address":"260 North Santa Fe Drive","city":"Denver","state":"CO","lat":39.7205094,"lng":-104.9984488,"retail":0,"medical":1,"notes":"","cartodb_id":146,"created_at":"2015-01-28T23:30:45Z","updated_at":"2015-01-28T23:30:45Z"}},{"type":"Feature","geometry":{"type":"Point","coordinates":[-105.10899,39.658691]},"properties":{"name":"Jvt Enterprises Inc","dba":"Colorado Cannabis Connection","address":"4550 South Kipling Parkway, Suite 4","city":"Denver","state":"CO","lat":39.65869138,"lng":-105.1089898,"retail":0,"medical":1,"notes":"","cartodb_id":147,"created_at":"2015-01-28T23:30:45Z","updated_at":"2015-01-28T23:30:45Z"}},{"type":"Feature","geometry":{"type":"Point","coordinates":[-105.00178,39.677811]},"properties":{"name":"Colorado Apothecary & Wellness Center Inc","dba":"","address":"2160 South Lipan Street","city":"Denver","state":"CO","lat":39.67781114,"lng":-105.00178,"retail":0,"medical":1,"notes":"","cartodb_id":148,"created_at":"2015-01-28T23:30:45Z","updated_at":"2015-01-28T23:30:45Z"}},{"type":"Feature","geometry":{"type":"Point","coordinates":[-105.025156,39.73382]},"properties":{"name":"Sense Of Healing Llc","dba":"","address":"1005 Federal Boulevard","city":"Denver","state":"CO","lat":39.73381953,"lng":-105.0251564,"retail":1,"medical":1,"notes":"","cartodb_id":149,"created_at":"2015-01-28T23:30:45Z","updated_at":"2015-01-28T23:30:45Z"}},{"type":"Feature","geometry":{"type":"Point","coordinates":[-104.497049,37.171601]},"properties":{"name":"T.P. Main Street Llc","dba":"Trinidad Leaf","address":"821 East Main Street","city":"Trinidad","state":"CO","lat":37.17160104,"lng":-104.4970485,"retail":0,"medical":1,"notes":"","cartodb_id":150,"created_at":"2015-01-28T23:30:45Z","updated_at":"2015-01-28T23:30:45Z"}},{"type":"Feature","geometry":{"type":"Point","coordinates":[-104.813103,38.873008]},"properties":{"name":"Natures Way Wellness Center Inc","dba":"High Country Healing 6","address":"2815 North El Paso Street, Unit D","city":"Colorado Springs","state":"CO","lat":38.87300837,"lng":-104.8131032,"retail":0,"medical":1,"notes":"","cartodb_id":151,"created_at":"2015-01-28T23:30:45Z","updated_at":"2015-01-28T23:30:45Z"}},{"type":"Feature","geometry":{"type":"Point","coordinates":[-106.086888,39.591055]},"properties":{"name":"Medical Marijuana Of The Rockies Llc","dba":"","address":"720 Summit Boulevard","city":"Frisco","state":"CO","lat":39.59105455,"lng":-106.0868881,"retail":0,"medical":1,"notes":"","cartodb_id":152,"created_at":"2015-01-28T23:30:45Z","updated_at":"2015-01-28T23:30:45Z"}},{"type":"Feature","geometry":{"type":"Point","coordinates":[-105.053233,39.753891]},"properties":{"name":"New Age Medical Llc","dba":"","address":"2553 Sheridan Boulevard","city":"Edgewater","state":"CO","lat":39.75389084,"lng":-105.0532333,"retail":1,"medical":1,"notes":"","cartodb_id":153,"created_at":"2015-01-28T23:30:45Z","updated_at":"2015-01-28T23:30:45Z"}},{"type":"Feature","geometry":{"type":"Point","coordinates":[-104.717302,38.328686]},"properties":{"name":"Pueblo West Organics Llc","dba":"Pueblo West Organics","address":"609 East Enterprise Drive, Suite 130","city":"Pueblo West","state":"CO","lat":38.3286858,"lng":-104.7173015,"retail":1,"medical":0,"notes":"","cartodb_id":154,"created_at":"2015-01-28T23:30:45Z","updated_at":"2015-01-28T23:30:45Z"}},{"type":"Feature","geometry":{"type":"Point","coordinates":[-104.858195,38.841966]},"properties":{"name":"Green And Healthy Wellness Llc","dba":"Green And Healthy Wellness","address":"212 South 21st Street","city":"Colorado Springs","state":"CO","lat":38.841966,"lng":-104.858195,"retail":0,"medical":1,"notes":"","cartodb_id":155,"created_at":"2015-01-28T23:30:45Z","updated_at":"2015-01-28T23:30:45Z"}},{"type":"Feature","geometry":{"type":"Point","coordinates":[-104.986247,39.723748]},"properties":{"name":"Gdd Llc","dba":"Green Dragon Denver","address":"424 Lincoln Street","city":"Denver","state":"CO","lat":39.72374839,"lng":-104.9862466,"retail":0,"medical":1,"notes":"","cartodb_id":156,"created_at":"2015-01-28T23:30:45Z","updated_at":"2015-01-28T23:30:45Z"}},{"type":"Feature","geometry":{"type":"Point","coordinates":[-105.445306,39.872671]},"properties":{"name":"Alternative Medical Supplies Llc","dba":"","address":"9 Karlann Drive","city":"Black Hawk","state":"CO","lat":39.872671,"lng":-105.4453055,"retail":1,"medical":1,"notes":"","cartodb_id":157,"created_at":"2015-01-28T23:30:45Z","updated_at":"2015-01-28T23:30:45Z"}},{"type":"Feature","geometry":{"type":"Point","coordinates":[-104.98249,39.760765]},"properties":{"name":"Denver Patients Group Llc","dba":"Denver Patients Group, Llc","address":"2863 Larimer Street, Suite B","city":"Denver","state":"CO","lat":39.7607649,"lng":-104.9824898,"retail":1,"medical":1,"notes":"","cartodb_id":158,"created_at":"2015-01-28T23:30:45Z","updated_at":"2015-01-28T23:30:45Z"}},{"type":"Feature","geometry":{"type":"Point","coordinates":[-104.913971,39.740147]},"properties":{"name":"Serenity Moon Wellness Center","dba":"Frosted Leaf","address":"6302 East Colfax Avenue","city":"Denver","state":"CO","lat":39.74014696,"lng":-104.9139706,"retail":1,"medical":1,"notes":"","cartodb_id":159,"created_at":"2015-01-28T23:30:45Z","updated_at":"2015-01-28T23:30:45Z"}},{"type":"Feature","geometry":{"type":"Point","coordinates":[-105.038891,39.740339]},"properties":{"name":"Southwest Alternative Care Llc","dba":"","address":"3937 West Colfax Avenue","city":"Denver","state":"CO","lat":39.74033916,"lng":-105.0388914,"retail":0,"medical":1,"notes":"","cartodb_id":160,"created_at":"2015-01-28T23:30:45Z","updated_at":"2015-01-28T23:30:45Z"}},{"type":"Feature","geometry":{"type":"Point","coordinates":[-106.481169,39.62215]},"properties":{"name":"Rfscev Llc","dba":"Roots Rx","address":"40690 Highway 6, Suite E-2","city":"Avon","state":"CO","lat":39.62215,"lng":-106.481169,"retail":1,"medical":0,"notes":"","cartodb_id":161,"created_at":"2015-01-28T23:30:45Z","updated_at":"2015-01-28T23:30:45Z"}},{"type":"Feature","geometry":{"type":"Point","coordinates":[-105.261794,40.021615]},"properties":{"name":"Fresh Baked Llc","dba":"","address":"2539 Pearl Street","city":"Boulder","state":"CO","lat":40.02161482,"lng":-105.2617941,"retail":1,"medical":0,"notes":"","cartodb_id":162,"created_at":"2015-01-28T23:30:45Z","updated_at":"2015-01-28T23:30:45Z"}},{"type":"Feature","geometry":{"type":"Point","coordinates":[-107.875692,37.247665]},"properties":{"name":"Durango Organics Llp","dba":"","address":"72 Suttle Street, Suite F","city":"Durango","state":"CO","lat":37.247665,"lng":-107.8756916,"retail":0,"medical":1,"notes":"","cartodb_id":163,"created_at":"2015-01-28T23:30:45Z","updated_at":"2015-01-28T23:30:45Z"}},{"type":"Feature","geometry":{"type":"Point","coordinates":[-104.973591,39.749476]},"properties":{"name":"Alpine Herbal Wellness Llc","dba":"Frosted Leaf","address":"1038 E 22nd Ave","city":"Denver","state":"CO","lat":39.74947638,"lng":-104.9735912,"retail":0,"medical":1,"notes":"","cartodb_id":164,"created_at":"2015-01-28T23:30:45Z","updated_at":"2015-01-28T23:30:45Z"}},{"type":"Feature","geometry":{"type":"Point","coordinates":[-104.99974,39.706657]},"properties":{"name":"Cannabis King Llc","dba":"Greenwerkz","address":"1131 West Custer Place, Unit A","city":"Denver","state":"CO","lat":39.70665729,"lng":-104.99974,"retail":1,"medical":0,"notes":"","cartodb_id":165,"created_at":"2015-01-28T23:30:45Z","updated_at":"2015-01-28T23:30:45Z"}},{"type":"Feature","geometry":{"type":"Point","coordinates":[-104.865465,39.739198]},"properties":{"name":"The Green Solution Llc","dba":"","address":"1450 Havana Street, Suites C & D","city":"Aurora","state":"CO","lat":39.739198,"lng":-104.865465,"retail":1,"medical":0,"notes":"","cartodb_id":166,"created_at":"2015-01-28T23:30:45Z","updated_at":"2015-01-28T23:30:45Z"}},{"type":"Feature","geometry":{"type":"Point","coordinates":[-104.813127,38.872497]},"properties":{"name":"Big Medicine Llc","dba":"Big Medicine Cannabissary","address":"2909 North El Paso Street","city":"Colorado Springs","state":"CO","lat":38.8724968,"lng":-104.8131266,"retail":0,"medical":1,"notes":"","cartodb_id":167,"created_at":"2015-01-28T23:30:45Z","updated_at":"2015-01-28T23:30:45Z"}},{"type":"Feature","geometry":{"type":"Point","coordinates":[-106.984639,38.86704]},"properties":{"name":"Crested Butte Wellness Center Llc","dba":"Crested Butte Wellness Center","address":"329 BELLEVIEW # A","city":"Crested Butte","state":"CO","lat":38.86704,"lng":-106.9846389,"retail":1,"medical":0,"notes":"","cartodb_id":168,"created_at":"2015-01-28T23:30:45Z","updated_at":"2015-01-28T23:30:45Z"}},{"type":"Feature","geometry":{"type":"Point","coordinates":[-105.256478,40.026032]},"properties":{"name":"Sustainable Health Llc","dba":"14er Holistics","address":"2897 Mapleton Avenue, Suite 800","city":"Boulder","state":"CO","lat":40.0260321,"lng":-105.2564781,"retail":1,"medical":0,"notes":"","cartodb_id":169,"created_at":"2015-01-28T23:30:45Z","updated_at":"2015-01-28T23:30:45Z"}},{"type":"Feature","geometry":{"type":"Point","coordinates":[-104.990247,39.734799]},"properties":{"name":"Colorado Cannabis Company Llc","dba":"Pure Medical Dispensary","address":"1133 Bannock Street","city":"Denver","state":"CO","lat":39.73479882,"lng":-104.9902473,"retail":0,"medical":1,"notes":"","cartodb_id":170,"created_at":"2015-01-28T23:30:45Z","updated_at":"2015-01-28T23:30:45Z"}},{"type":"Feature","geometry":{"type":"Point","coordinates":[-104.785736,38.837069]},"properties":{"name":"The Organic Seed Llc","dba":"","address":"2304 East Platte Avenue","city":"Colorado Springs","state":"CO","lat":38.8370687,"lng":-104.7857355,"retail":0,"medical":1,"notes":"","cartodb_id":171,"created_at":"2015-01-28T23:30:45Z","updated_at":"2015-01-28T23:30:45Z"}},{"type":"Feature","geometry":{"type":"Point","coordinates":[-104.826906,38.929319]},"properties":{"name":"Pure Medical Llc","dba":"","address":"207 Rockrimmon Boulevard, Suite C","city":"Colorado Springs","state":"CO","lat":38.92931918,"lng":-104.8269063,"retail":0,"medical":1,"notes":"","cartodb_id":172,"created_at":"2015-01-28T23:30:45Z","updated_at":"2015-01-28T23:30:45Z"}},{"type":"Feature","geometry":{"type":"Point","coordinates":[-104.987506,39.703095]},"properties":{"name":"Botica Del Sol Llc","dba":"","address":"754 South Broadway","city":"Denver","state":"CO","lat":39.70309508,"lng":-104.987506,"retail":0,"medical":1,"notes":"","cartodb_id":173,"created_at":"2015-01-28T23:30:45Z","updated_at":"2015-01-28T23:30:45Z"}},{"type":"Feature","geometry":{"type":"Point","coordinates":[-104.81856,38.833404]},"properties":{"name":"American Wellness Center Llc","dba":"","address":"329 East Pikes Peak Avenue","city":"Colorado Springs","state":"CO","lat":38.8334037,"lng":-104.8185599,"retail":0,"medical":1,"notes":"","cartodb_id":174,"created_at":"2015-01-28T23:30:45Z","updated_at":"2015-01-28T23:30:45Z"}},{"type":"Feature","geometry":{"type":"Point","coordinates":[-104.786667,38.835577]},"properties":{"name":"Rocky Mountain Miracles Llc","dba":"","address":"2316 East Bijou Street","city":"Colorado Springs","state":"CO","lat":38.83557706,"lng":-104.7866669,"retail":0,"medical":1,"notes":"","cartodb_id":175,"created_at":"2015-01-28T23:30:45Z","updated_at":"2015-01-28T23:30:45Z"}},{"type":"Feature","geometry":{"type":"Point","coordinates":[-104.940517,39.711552]},"properties":{"name":"Kind Love Llc","dba":"","address":"4380 East Alameda Avenue","city":"Glendale","state":"CO","lat":39.71155155,"lng":-104.9405168,"retail":1,"medical":1,"notes":"","cartodb_id":176,"created_at":"2015-01-28T23:30:45Z","updated_at":"2015-01-28T23:30:45Z"}},{"type":"Feature","geometry":{"type":"Point","coordinates":[-105.067305,39.785309]},"properties":{"name":"Medical Mj Supply Llc","dba":"Bestcoloradomeds.Org","address":"4800 Lamar Street","city":"Wheat Ridge","state":"CO","lat":39.785309,"lng":-105.067305,"retail":1,"medical":1,"notes":"","cartodb_id":177,"created_at":"2015-01-28T23:30:45Z","updated_at":"2015-01-28T23:30:45Z"}},{"type":"Feature","geometry":{"type":"Point","coordinates":[-104.987574,39.675816]},"properties":{"name":"Patients Choice Of Colorado Llc","dba":"","address":"2251 South Broadway","city":"Denver","state":"CO","lat":39.67581551,"lng":-104.987574,"retail":1,"medical":1,"notes":"","cartodb_id":178,"created_at":"2015-01-28T23:30:45Z","updated_at":"2015-01-28T23:30:45Z"}},{"type":"Feature","geometry":{"type":"Point","coordinates":[-104.761069,38.890812]},"properties":{"name":"Best Budz Llc","dba":"Best Budz","address":"3729 Austin Bluffs Parkway","city":"Colorado Springs","state":"CO","lat":38.89081231,"lng":-104.7610689,"retail":0,"medical":1,"notes":"","cartodb_id":179,"created_at":"2015-01-28T23:30:45Z","updated_at":"2015-01-28T23:30:45Z"}},{"type":"Feature","geometry":{"type":"Point","coordinates":[-104.757084,38.860589]},"properties":{"name":"East West Alternative Medicine Llc","dba":"","address":"1905 North Academy Boulevard, Suite 100","city":"Colorado Springs","state":"CO","lat":38.86058925,"lng":-104.7570838,"retail":0,"medical":1,"notes":"","cartodb_id":180,"created_at":"2015-01-28T23:30:45Z","updated_at":"2015-01-28T23:30:45Z"}},{"type":"Feature","geometry":{"type":"Point","coordinates":[-105.076109,40.312441]},"properties":{"name":"Natural Alternatives For Life Llc","dba":"Green Tree Medicinals","address":"1090 North 2nd Street","city":"Berthoud","state":"CO","lat":40.3124405,"lng":-105.076109,"retail":0,"medical":1,"notes":"","cartodb_id":181,"created_at":"2015-01-28T23:30:45Z","updated_at":"2015-01-28T23:30:45Z"}},{"type":"Feature","geometry":{"type":"Point","coordinates":[-105.281569,40.017566]},"properties":{"name":"Jtr Caregivers Llc","dba":"Helping Hands Herbals","address":"1021 Pearl Street, Suite C","city":"Boulder","state":"CO","lat":40.01756571,"lng":-105.2815685,"retail":1,"medical":0,"notes":"","cartodb_id":182,"created_at":"2015-01-28T23:30:45Z","updated_at":"2015-01-28T23:30:45Z"}},{"type":"Feature","geometry":{"type":"Point","coordinates":[-105.489595,39.738989]},"properties":{"name":"Mountain Medicinals Inc","dba":"Mountain Medicinals Wellness Center","address":"1800 Colorado Boulevard, Suite 5,","city":"Idaho Springs","state":"CO","lat":39.73898862,"lng":-105.489595,"retail":0,"medical":1,"notes":"","cartodb_id":183,"created_at":"2015-01-28T23:30:45Z","updated_at":"2015-01-28T23:30:45Z"}},{"type":"Feature","geometry":{"type":"Point","coordinates":[-105.011775,39.731054]},"properties":{"name":"A Cut Off The Top Medical Marijuana Llc","dba":"","address":"2059 West 9th Avenue, Unit A","city":"Denver","state":"CO","lat":39.73105417,"lng":-105.0117752,"retail":1,"medical":0,"notes":"","cartodb_id":184,"created_at":"2015-01-28T23:30:45Z","updated_at":"2015-01-28T23:30:45Z"}},{"type":"Feature","geometry":{"type":"Point","coordinates":[-104.765191,39.638604]},"properties":{"name":"Greenwerkz Llc","dba":"Greenwerkz","address":"19151 East Quincy Avenue","city":"Aurora","state":"CO","lat":39.6386036,"lng":-104.7651911,"retail":1,"medical":0,"notes":"","cartodb_id":185,"created_at":"2015-01-28T23:30:45Z","updated_at":"2015-01-28T23:30:45Z"}},{"type":"Feature","geometry":{"type":"Point","coordinates":[-105.61835,39.766943]},"properties":{"name":"Hch3 Llc","dba":"","address":"1221 County Road 308 B","city":"Dumont","state":"CO","lat":39.766943,"lng":-105.6183501,"retail":1,"medical":0,"notes":"","cartodb_id":186,"created_at":"2015-01-28T23:30:45Z","updated_at":"2015-01-28T23:30:45Z"}},{"type":"Feature","geometry":{"type":"Point","coordinates":[-104.931604,39.680273]},"properties":{"name":"Vita Meds Llc","dba":"Mr. Niceguys","address":"2000 South Dahlia Street, Suite 250","city":"Denver","state":"CO","lat":39.680273,"lng":-104.931604,"retail":0,"medical":1,"notes":"","cartodb_id":187,"created_at":"2015-01-28T23:30:45Z","updated_at":"2015-01-28T23:30:45Z"}},{"type":"Feature","geometry":{"type":"Point","coordinates":[-105.052765,39.696056]},"properties":{"name":"Lightshade Labs Llc","dba":"Lightshade","address":"1126 South Sheridan Boulevard","city":"Denver","state":"CO","lat":39.696056,"lng":-105.0527649,"retail":1,"medical":1,"notes":"","cartodb_id":188,"created_at":"2015-01-28T23:30:45Z","updated_at":"2015-01-28T23:30:45Z"}},{"type":"Feature","geometry":{"type":"Point","coordinates":[-105.071825,39.695955]},"properties":{"name":"Mbs Wellness Clinic Llc","dba":"Mind Body Spirit Wellness Clinic","address":"6745 West Mississippi Avenue, Suite B","city":"Lakewood","state":"CO","lat":39.69595497,"lng":-105.071825,"retail":0,"medical":1,"notes":"","cartodb_id":189,"created_at":"2015-01-28T23:30:45Z","updated_at":"2015-01-28T23:30:45Z"}},{"type":"Feature","geometry":{"type":"Point","coordinates":[-106.088517,39.591472]},"properties":{"name":"Rjj Frisco Llc","dba":"Native Roots Summit","address":"861 North Summit Boulevard","city":"Frisco","state":"CO","lat":39.5914718,"lng":-106.0885168,"retail":1,"medical":1,"notes":"","cartodb_id":190,"created_at":"2015-01-28T23:30:45Z","updated_at":"2015-01-28T23:30:45Z"}},{"type":"Feature","geometry":{"type":"Point","coordinates":[-104.801413,38.798268]},"properties":{"name":"Biomeds Llc","dba":"Biomeds","address":"2301 Rand Avenue","city":"Colorado Springs","state":"CO","lat":38.798268,"lng":-104.801413,"retail":0,"medical":1,"notes":"","cartodb_id":191,"created_at":"2015-01-28T23:30:45Z","updated_at":"2015-01-28T23:30:45Z"}},{"type":"Feature","geometry":{"type":"Point","coordinates":[-104.929836,39.769882]},"properties":{"name":"Jgb Ventures Llc","dba":"Dank Llc","address":"3835 Elm Street, Suites B & C","city":"Denver","state":"CO","lat":39.769882,"lng":-104.929836,"retail":0,"medical":1,"notes":"","cartodb_id":192,"created_at":"2015-01-28T23:30:45Z","updated_at":"2015-01-28T23:30:45Z"}},{"type":"Feature","geometry":{"type":"Point","coordinates":[-105.053235,39.754553]},"properties":{"name":"Bud Med Health Centers Llc","dba":"","address":"2517 Sheridan Boulevard","city":"Edgewater","state":"CO","lat":39.7545528,"lng":-105.0532352,"retail":1,"medical":1,"notes":"","cartodb_id":193,"created_at":"2015-01-28T23:30:45Z","updated_at":"2015-01-28T23:30:45Z"}},{"type":"Feature","geometry":{"type":"Point","coordinates":[-105.129305,39.682099]},"properties":{"name":"Compassionate Enterprises Llc","dba":"The Clinic On Jewell","address":"12018 West Jewell Avenue","city":"Lakewood","state":"CO","lat":39.6820995,"lng":-105.1293048,"retail":0,"medical":1,"notes":"","cartodb_id":194,"created_at":"2015-01-28T23:30:45Z","updated_at":"2015-01-28T23:30:45Z"}},{"type":"Feature","geometry":{"type":"Point","coordinates":[-105.609357,39.765536]},"properties":{"name":"Milagro Wellness Healing Llc","dba":"Milagro Wellness","address":"811 County Road 308","city":"Downieville","state":"CO","lat":39.7655361,"lng":-105.6093573,"retail":1,"medical":0,"notes":"","cartodb_id":195,"created_at":"2015-01-28T23:30:45Z","updated_at":"2015-01-28T23:30:45Z"}},{"type":"Feature","geometry":{"type":"Point","coordinates":[-105.058961,39.747646]},"properties":{"name":"Rjj Edgewater Llc","dba":"Native Roots Edgewater","address":"5610 W 20th Avenue","city":"Edgewater","state":"CO","lat":39.74764627,"lng":-105.0589612,"retail":0,"medical":1,"notes":"","cartodb_id":196,"created_at":"2015-01-28T23:30:45Z","updated_at":"2015-01-28T23:30:45Z"}},{"type":"Feature","geometry":{"type":"Point","coordinates":[-105.132335,39.740138]},"properties":{"name":"Cpm Lakewood Llc","dba":"Compassionate Pain Management","address":"11950 West Colfax Avenue","city":"Lakewood","state":"CO","lat":39.74013808,"lng":-105.1323349,"retail":0,"medical":1,"notes":"","cartodb_id":197,"created_at":"2015-01-28T23:30:45Z","updated_at":"2015-01-28T23:30:45Z"}},{"type":"Feature","geometry":{"type":"Point","coordinates":[-104.973387,39.743276]},"properties":{"name":"Mayflower Group Llc","dba":"The Health Center","address":"1736 Downing Street","city":"Denver","state":"CO","lat":39.74327584,"lng":-104.9733868,"retail":1,"medical":1,"notes":"","cartodb_id":198,"created_at":"2015-01-28T23:30:45Z","updated_at":"2015-01-28T23:30:45Z"}},{"type":"Feature","geometry":{"type":"Point","coordinates":[-105.013173,39.7219]},"properties":{"name":"Personalized Organic Treatments Llc","dba":"","address":"219 Vallejo Street","city":"Denver","state":"CO","lat":39.72190027,"lng":-105.0131728,"retail":0,"medical":1,"notes":"","cartodb_id":199,"created_at":"2015-01-28T23:30:45Z","updated_at":"2015-01-28T23:30:45Z"}},{"type":"Feature","geometry":{"type":"Point","coordinates":[-105.210066,38.42473]},"properties":{"name":"Jmc Enterprises Inc","dba":"Fremont County Cannabis","address":"1505 Elm Avenue","city":"Canon City","state":"CO","lat":38.42473038,"lng":-105.2100663,"retail":0,"medical":1,"notes":"","cartodb_id":200,"created_at":"2015-01-28T23:30:45Z","updated_at":"2015-01-28T23:30:45Z"}},{"type":"Feature","geometry":{"type":"Point","coordinates":[-104.788635,38.917701]},"properties":{"name":"Medical Cannabis Caregivers Inc","dba":"Mc Caregivers","address":"6020 Erin Park Drive, Unit A","city":"Colorado Springs","state":"CO","lat":38.917701,"lng":-104.788635,"retail":0,"medical":1,"notes":"","cartodb_id":201,"created_at":"2015-01-28T23:30:45Z","updated_at":"2015-01-28T23:30:45Z"}},{"type":"Feature","geometry":{"type":"Point","coordinates":[-104.686107,38.850297]},"properties":{"name":"Cannabicare Inc","dba":"The Care","address":"1466 Woolsey Heights","city":"Colorado Springs","state":"CO","lat":38.8502966,"lng":-104.6861068,"retail":0,"medical":1,"notes":"","cartodb_id":202,"created_at":"2015-01-28T23:30:45Z","updated_at":"2015-01-28T23:30:45Z"}},{"type":"Feature","geometry":{"type":"Point","coordinates":[-104.740753,38.338925]},"properties":{"name":"Maggies Farm Llc","dba":"","address":"74 Component Drive, Suite 170","city":"Pueblo West","state":"CO","lat":38.3389249,"lng":-104.7407526,"retail":1,"medical":0,"notes":"","cartodb_id":203,"created_at":"2015-01-28T23:30:45Z","updated_at":"2015-01-28T23:30:45Z"}},{"type":"Feature","geometry":{"type":"Point","coordinates":[-104.577498,38.246121]},"properties":{"name":"Day Dreamz Llc","dba":"Day Dreamz","address":"1805 Santa Fe Drive, Suites D, E, F & G","city":"Pueblo","state":"CO","lat":38.2461209,"lng":-104.5774984,"retail":0,"medical":1,"notes":"","cartodb_id":204,"created_at":"2015-01-28T23:30:45Z","updated_at":"2015-01-28T23:30:45Z"}},{"type":"Feature","geometry":{"type":"Point","coordinates":[-105.02521,39.74511]},"properties":{"name":"Mile High Medical Cannabis Llc","dba":"","address":"1705 Federal Boulevard","city":"Denver","state":"CO","lat":39.74510982,"lng":-105.0252103,"retail":1,"medical":1,"notes":"","cartodb_id":205,"created_at":"2015-01-28T23:30:45Z","updated_at":"2015-01-28T23:30:45Z"}},{"type":"Feature","geometry":{"type":"Point","coordinates":[-104.812266,39.675704]},"properties":{"name":"Rraw, Llc","dba":"Rocky Road Aurora","address":"2224 S Fraser ST Unit 6","city":"Aurora","state":"CO","lat":39.67570424,"lng":-104.8122658,"retail":1,"medical":0,"notes":"","cartodb_id":206,"created_at":"2015-01-28T23:30:45Z","updated_at":"2015-01-28T23:30:45Z"}},{"type":"Feature","geometry":{"type":"Point","coordinates":[-105.256478,40.026032]},"properties":{"name":"Sustainable Health Llc","dba":"14er Holistics","address":"2897 Mapleton Ave, Suite 800","city":"Boulder","state":"CO","lat":40.0260321,"lng":-105.2564781,"retail":0,"medical":1,"notes":"","cartodb_id":207,"created_at":"2015-01-28T23:30:45Z","updated_at":"2015-01-28T23:30:45Z"}},{"type":"Feature","geometry":{"type":"Point","coordinates":[-104.807814,38.874009]},"properties":{"name":"Amerigreen Of Colorado Springs Ilct Llc","dba":"The Amerigreen Company","address":"907 E Fillmore St","city":"Colorado Springs","state":"CO","lat":38.87400931,"lng":-104.8078142,"retail":0,"medical":1,"notes":"","cartodb_id":208,"created_at":"2015-01-28T23:30:45Z","updated_at":"2015-01-28T23:30:45Z"}},{"type":"Feature","geometry":{"type":"Point","coordinates":[-106.005259,38.524394]},"properties":{"name":"Ecomed Llc","dba":"Natures Medicine Salida","address":"230 West 16th Street, Suite C","city":"Salida","state":"CO","lat":38.5243945,"lng":-106.0052586,"retail":1,"medical":1,"notes":"","cartodb_id":209,"created_at":"2015-01-28T23:30:45Z","updated_at":"2015-01-28T23:30:45Z"}},{"type":"Feature","geometry":{"type":"Point","coordinates":[-106.458455,39.612358]},"properties":{"name":"J&R Partners Llc","dba":"Native Roots Vail","address":"042190 Highway 6","city":"Avon","state":"CO","lat":39.6123583,"lng":-106.458455,"retail":1,"medical":1,"notes":"","cartodb_id":210,"created_at":"2015-01-28T23:30:45Z","updated_at":"2015-01-28T23:30:45Z"}},{"type":"Feature","geometry":{"type":"Point","coordinates":[-105.011775,39.731054]},"properties":{"name":"A Cut Off The Top Medical Marijuana Llc","dba":"","address":"2059 West 9th Avenue","city":"Denver","state":"CO","lat":39.73105417,"lng":-105.0117752,"retail":0,"medical":1,"notes":"","cartodb_id":211,"created_at":"2015-01-28T23:30:45Z","updated_at":"2015-01-28T23:30:45Z"}},{"type":"Feature","geometry":{"type":"Point","coordinates":[-104.987549,39.683631]},"properties":{"name":"Dgs Inc","dba":"The Kind Room","address":"1881 South Broadway","city":"Denver","state":"CO","lat":39.68363108,"lng":-104.9875494,"retail":1,"medical":1,"notes":"","cartodb_id":212,"created_at":"2015-01-28T23:30:45Z","updated_at":"2015-01-28T23:30:45Z"}},{"type":"Feature","geometry":{"type":"Point","coordinates":[-107.219335,39.402379]},"properties":{"name":"Acme Healing Center Of Carbondale Llc","dba":"","address":"958 Highway 133","city":"Carbondale","state":"CO","lat":39.402379,"lng":-107.219335,"retail":1,"medical":0,"notes":"","cartodb_id":213,"created_at":"2015-01-28T23:30:45Z","updated_at":"2015-01-28T23:30:45Z"}},{"type":"Feature","geometry":{"type":"Point","coordinates":[-104.993904,39.736854]},"properties":{"name":"Herbal Health Llc","dba":"Local Product Of Colorado","address":"419 West 13th Avenue","city":"Denver","state":"CO","lat":39.73685418,"lng":-104.9939037,"retail":1,"medical":1,"notes":"","cartodb_id":214,"created_at":"2015-01-28T23:30:45Z","updated_at":"2015-01-28T23:30:45Z"}},{"type":"Feature","geometry":{"type":"Point","coordinates":[-104.846208,38.838893]},"properties":{"name":"Advance Cure For Vera Bestura Llc","dba":"Herban Farmer, Llc","address":"2755 Ore Mill Road, Units 13 &14","city":"Colorado Springs","state":"CO","lat":38.838893,"lng":-104.846208,"retail":0,"medical":1,"notes":"","cartodb_id":215,"created_at":"2015-01-28T23:30:45Z","updated_at":"2015-01-28T23:30:45Z"}},{"type":"Feature","geometry":{"type":"Point","coordinates":[-104.99803,39.691603]},"properties":{"name":"Kayak Corp","dba":"Amsterdam Cafe","address":"1325 South Inca Street, Suite A","city":"Denver","state":"CO","lat":39.69160329,"lng":-104.9980296,"retail":1,"medical":0,"notes":"","cartodb_id":216,"created_at":"2015-01-28T23:30:45Z","updated_at":"2015-01-28T23:30:45Z"}},{"type":"Feature","geometry":{"type":"Point","coordinates":[-104.735048,38.339558]},"properties":{"name":"Natures Gift Shop Llc","dba":"","address":"148 E Assembly Drive","city":"Pueblo West","state":"CO","lat":38.3395579,"lng":-104.735048,"retail":1,"medical":0,"notes":"","cartodb_id":217,"created_at":"2015-01-28T23:30:45Z","updated_at":"2015-01-28T23:30:45Z"}},{"type":"Feature","geometry":{"type":"Point","coordinates":[-107.784291,39.532511]},"properties":{"name":"Western Slope Caregivers Llc","dba":"","address":"120 West 4th Street","city":"Rifle","state":"CO","lat":39.5325109,"lng":-107.7842912,"retail":0,"medical":1,"notes":"","cartodb_id":218,"created_at":"2015-01-28T23:30:45Z","updated_at":"2015-01-28T23:30:45Z"}},{"type":"Feature","geometry":{"type":"Point","coordinates":[-104.509833,37.16647]},"properties":{"name":"Peaceful Herbs Ltd","dba":"Peaceful Herbs","address":"124 Santa Fe Trail","city":"Trinidad","state":"CO","lat":37.16647024,"lng":-104.5098326,"retail":1,"medical":0,"notes":"","cartodb_id":219,"created_at":"2015-01-28T23:30:45Z","updated_at":"2015-01-28T23:30:45Z"}},{"type":"Feature","geometry":{"type":"Point","coordinates":[-106.858605,40.50856]},"properties":{"name":"Natural Choice Co-Op","dba":"Natural Choice","address":"2835 Downhill Plaza, Unit 604","city":"Steamboat Springs","state":"CO","lat":40.50856038,"lng":-106.8586051,"retail":1,"medical":0,"notes":"","cartodb_id":220,"created_at":"2015-01-28T23:30:45Z","updated_at":"2015-01-28T23:30:45Z"}},{"type":"Feature","geometry":{"type":"Point","coordinates":[-104.987599,39.709042]},"properties":{"name":"Beyond Broadway Llc","dba":"Beyond Broadway, Llc","address":"432 South Broadway","city":"Denver","state":"CO","lat":39.70904233,"lng":-104.9875993,"retail":1,"medical":1,"notes":"","cartodb_id":221,"created_at":"2015-01-28T23:30:45Z","updated_at":"2015-01-28T23:30:45Z"}},{"type":"Feature","geometry":{"type":"Point","coordinates":[-106.818487,39.187145]},"properties":{"name":"Colorado Medical Marijuana Supply Inc","dba":"Leaf Aspen","address":"555 E Durant Ave","city":"Aspen","state":"CO","lat":39.18714547,"lng":-106.8184868,"retail":1,"medical":0,"notes":"","cartodb_id":222,"created_at":"2015-01-28T23:30:45Z","updated_at":"2015-01-28T23:30:45Z"}},{"type":"Feature","geometry":{"type":"Point","coordinates":[-106.819804,39.189107]},"properties":{"name":"Green Essentials Medical Llc","dba":"","address":"400 East Hyman Avenue, Unit 102A","city":"Aspen","state":"CO","lat":39.189107,"lng":-106.819804,"retail":1,"medical":0,"notes":"","cartodb_id":223,"created_at":"2015-01-28T23:30:45Z","updated_at":"2015-01-28T23:30:45Z"}},{"type":"Feature","geometry":{"type":"Point","coordinates":[-105.000158,39.714788]},"properties":{"name":"3b Kalamath Llc","dba":"Buddy Boy","address":"120 South Kalamath Street","city":"Denver","state":"CO","lat":39.714788,"lng":-105.000158,"retail":0,"medical":1,"notes":"","cartodb_id":224,"created_at":"2015-01-28T23:30:45Z","updated_at":"2015-01-28T23:30:45Z"}},{"type":"Feature","geometry":{"type":"Point","coordinates":[-104.991822,39.905072]},"properties":{"name":"Botanacare Llc","dba":"","address":"11450 Cherokee Street, Unit A7","city":"Northglenn","state":"CO","lat":39.905072,"lng":-104.9918225,"retail":0,"medical":1,"notes":"","cartodb_id":225,"created_at":"2015-01-28T23:30:45Z","updated_at":"2015-01-28T23:30:45Z"}},{"type":"Feature","geometry":{"type":"Point","coordinates":[-104.968051,39.678486]},"properties":{"name":"Citi-Med Llc","dba":"Starbuds","address":"1640 East Evans Avenue","city":"Denver","state":"CO","lat":39.67848563,"lng":-104.9680508,"retail":1,"medical":1,"notes":"","cartodb_id":226,"created_at":"2015-01-28T23:30:45Z","updated_at":"2015-01-28T23:30:45Z"}},{"type":"Feature","geometry":{"type":"Point","coordinates":[-105.225421,40.013365]},"properties":{"name":"Options Medical Center Llc","dba":"Colorado Cultivators Association","address":"1534 55th Street","city":"Boulder","state":"CO","lat":40.013365,"lng":-105.225421,"retail":1,"medical":0,"notes":"","cartodb_id":227,"created_at":"2015-01-28T23:30:45Z","updated_at":"2015-01-28T23:30:45Z"}},{"type":"Feature","geometry":{"type":"Point","coordinates":[-104.767,38.840302]},"properties":{"name":"Canna Meds Wellness Center Llc","dba":"","address":"506 North Chelton","city":"Colorado Springs","state":"CO","lat":38.840302,"lng":-104.767,"retail":0,"medical":1,"notes":"","cartodb_id":228,"created_at":"2015-01-28T23:30:45Z","updated_at":"2015-01-28T23:30:45Z"}},{"type":"Feature","geometry":{"type":"Point","coordinates":[-105.24007,38.699207]},"properties":{"name":"The Genetic Locker Inc","dba":"","address":"5370 Manhattan Circle, Suite 104","city":"Boulder","state":"CO","lat":38.699207,"lng":-105.24007,"retail":0,"medical":1,"notes":"","cartodb_id":229,"created_at":"2015-01-28T23:30:45Z","updated_at":"2015-01-28T23:30:45Z"}},{"type":"Feature","geometry":{"type":"Point","coordinates":[-104.930204,40.085994]},"properties":{"name":"Dacono Meds Llc","dba":"Dacono Meds","address":"730 Glen Creighton Drive, Unit C","city":"Dacono","state":"CO","lat":40.08599392,"lng":-104.9302042,"retail":0,"medical":1,"notes":"","cartodb_id":230,"created_at":"2015-01-28T23:30:45Z","updated_at":"2015-01-28T23:30:45Z"}},{"type":"Feature","geometry":{"type":"Point","coordinates":[-104.979812,39.765515]},"properties":{"name":"Rino Supply Co Inc","dba":"","address":"3100 Blake Street","city":"Denver","state":"CO","lat":39.765515,"lng":-104.979812,"retail":0,"medical":1,"notes":"","cartodb_id":231,"created_at":"2015-01-28T23:30:45Z","updated_at":"2015-01-28T23:30:45Z"}},{"type":"Feature","geometry":{"type":"Point","coordinates":[-104.715624,38.329768]},"properties":{"name":"Compassionate Care Coop Llc","dba":"Compassionate Care","address":"38 N Silicon Dr","city":"Pueblo West","state":"CO","lat":38.329768,"lng":-104.715624,"retail":0,"medical":1,"notes":"","cartodb_id":232,"created_at":"2015-01-28T23:30:45Z","updated_at":"2015-01-28T23:30:45Z"}},{"type":"Feature","geometry":{"type":"Point","coordinates":[-105.077077,40.575413]},"properties":{"name":"Elite Organics Llc","dba":"Elite Organics","address":"804 South College Avenue, Suite C","city":"Fort Collins","state":"CO","lat":40.57541252,"lng":-105.0770772,"retail":1,"medical":1,"notes":"","cartodb_id":233,"created_at":"2015-01-28T23:30:45Z","updated_at":"2015-01-28T23:30:45Z"}},{"type":"Feature","geometry":{"type":"Point","coordinates":[-104.979894,39.742287]},"properties":{"name":"Ivita Wellness Llc","dba":"","address":"1660 Pearl Street","city":"Denver","state":"CO","lat":39.74228669,"lng":-104.9798944,"retail":1,"medical":1,"notes":"","cartodb_id":234,"created_at":"2015-01-28T23:30:45Z","updated_at":"2015-01-28T23:30:45Z"}},{"type":"Feature","geometry":{"type":"Point","coordinates":[-107.870156,37.250546]},"properties":{"name":"Natures Own Wellness Center","dba":"","address":"927 Highway 3","city":"Durango","state":"CO","lat":37.2505464,"lng":-107.8701561,"retail":0,"medical":1,"notes":"","cartodb_id":235,"created_at":"2015-01-28T23:30:45Z","updated_at":"2015-01-28T23:30:45Z"}},{"type":"Feature","geometry":{"type":"Point","coordinates":[-105.19531,40.072778]},"properties":{"name":"Health Services Llc","dba":"Green Dream Health Services","address":"6700 Lookout Road, Suite 5","city":"Boulder","state":"CO","lat":40.072778,"lng":-105.19531,"retail":0,"medical":1,"notes":"","cartodb_id":236,"created_at":"2015-01-28T23:30:45Z","updated_at":"2015-01-28T23:30:45Z"}},{"type":"Feature","geometry":{"type":"Point","coordinates":[-105.179566,39.724009]},"properties":{"name":"Rocky Mountain Organic Medicine Inc","dba":"","address":"511 Orchard Street","city":"Golden","state":"CO","lat":39.7240088,"lng":-105.1795662,"retail":0,"medical":1,"notes":"","cartodb_id":237,"created_at":"2015-01-28T23:30:45Z","updated_at":"2015-01-28T23:30:45Z"}},{"type":"Feature","geometry":{"type":"Point","coordinates":[-104.823685,38.867698]},"properties":{"name":"Rocky Road Remedies Llc","dba":"Rocky Road West","address":"1528-1530 South Nevada Avenue","city":"Colorado Springs","state":"CO","lat":38.86769831,"lng":-104.823685,"retail":0,"medical":1,"notes":"","cartodb_id":238,"created_at":"2015-01-28T23:30:45Z","updated_at":"2015-01-28T23:30:45Z"}},{"type":"Feature","geometry":{"type":"Point","coordinates":[-104.826854,38.877735]},"properties":{"name":"Erincare Llc","dba":"The Treehouse","address":"34 Buchanan Street","city":"Colorado Springs","state":"CO","lat":38.87773535,"lng":-104.8268539,"retail":0,"medical":1,"notes":"","cartodb_id":239,"created_at":"2015-01-28T23:30:45Z","updated_at":"2015-01-28T23:30:45Z"}},{"type":"Feature","geometry":{"type":"Point","coordinates":[-104.818536,38.878485]},"properties":{"name":"White Mountain Medicine Llc","dba":"Livwell","address":"3234 North Nevada Avenue","city":"Colorado Springs","state":"CO","lat":38.87848509,"lng":-104.8185359,"retail":0,"medical":1,"notes":"","cartodb_id":240,"created_at":"2015-01-28T23:30:45Z","updated_at":"2015-01-28T23:30:45Z"}},{"type":"Feature","geometry":{"type":"Point","coordinates":[-104.760859,38.835755]},"properties":{"name":"The Healing Canna Llc","dba":"","address":"3692 East Bijou Street","city":"Colorado Springs","state":"CO","lat":38.8357555,"lng":-104.760859,"retail":0,"medical":1,"notes":"","cartodb_id":241,"created_at":"2015-01-28T23:30:45Z","updated_at":"2015-01-28T23:30:45Z"}},{"type":"Feature","geometry":{"type":"Point","coordinates":[-104.815533,38.819843]},"properties":{"name":"Pain Management Solutions Llc","dba":"","address":"1022 South Royer Street","city":"Colorado Springs","state":"CO","lat":38.81984328,"lng":-104.8155328,"retail":0,"medical":1,"notes":"","cartodb_id":242,"created_at":"2015-01-28T23:30:45Z","updated_at":"2015-01-28T23:30:45Z"}},{"type":"Feature","geometry":{"type":"Point","coordinates":[-105.025485,39.719325]},"properties":{"name":"3b Federal1 Llc","dba":"Buddy Boy","address":"155 North Federal Boulevard","city":"Denver","state":"CO","lat":39.7193246,"lng":-105.0254847,"retail":0,"medical":1,"notes":"","cartodb_id":243,"created_at":"2015-01-28T23:30:45Z","updated_at":"2015-01-28T23:30:45Z"}},{"type":"Feature","geometry":{"type":"Point","coordinates":[-107.219961,39.409499]},"properties":{"name":"Cmed Llc","dba":"","address":"615 Buggy Circle, Unit D","city":"Carbondale","state":"CO","lat":39.40949855,"lng":-107.2199611,"retail":1,"medical":0,"notes":"","cartodb_id":244,"created_at":"2015-01-28T23:30:45Z","updated_at":"2015-01-28T23:30:45Z"}},{"type":"Feature","geometry":{"type":"Point","coordinates":[-104.805641,38.87395]},"properties":{"name":"Pnd Llc","dba":"A Cut Above","address":"1150 East Fillmore Street","city":"Colorado Springs","state":"CO","lat":38.87394989,"lng":-104.8056409,"retail":0,"medical":1,"notes":"","cartodb_id":245,"created_at":"2015-01-28T23:30:45Z","updated_at":"2015-01-28T23:30:45Z"}},{"type":"Feature","geometry":{"type":"Point","coordinates":[-107.871119,37.249206]},"properties":{"name":"The Acceptus Group Llc","dba":"The Colorado Grow Company","address":"555 Rivergate Lane, Suite B2-135","city":"Durango","state":"CO","lat":37.249206,"lng":-107.871119,"retail":0,"medical":1,"notes":"","cartodb_id":246,"created_at":"2015-01-28T23:30:45Z","updated_at":"2015-01-28T23:30:45Z"}},{"type":"Feature","geometry":{"type":"Point","coordinates":[-107.783223,39.540337]},"properties":{"name":"Railroad Avenue Inc","dba":"","address":"1150 Railroad Avenue, Units A & B","city":"Rifle","state":"CO","lat":39.5403374,"lng":-107.7832229,"retail":0,"medical":1,"notes":"","cartodb_id":247,"created_at":"2015-01-28T23:30:45Z","updated_at":"2015-01-28T23:30:45Z"}},{"type":"Feature","geometry":{"type":"Point","coordinates":[-107.811621,37.937364]},"properties":{"name":"Delilah Llc","dba":"","address":"115 West Colorado Avenue","city":"Telluride","state":"CO","lat":37.93736429,"lng":-107.8116213,"retail":1,"medical":0,"notes":"","cartodb_id":248,"created_at":"2015-01-28T23:30:45Z","updated_at":"2015-01-28T23:30:45Z"}},{"type":"Feature","geometry":{"type":"Point","coordinates":[-104.987504,39.688882]},"properties":{"name":"Evergreen Apothecary Llc","dba":"","address":"1568 South Broadway","city":"Denver","state":"CO","lat":39.68888221,"lng":-104.9875037,"retail":1,"medical":1,"notes":"","cartodb_id":249,"created_at":"2015-01-28T23:30:45Z","updated_at":"2015-01-28T23:30:45Z"}},{"type":"Feature","geometry":{"type":"Point","coordinates":[-104.924189,39.777453]},"properties":{"name":"The Green Solution Llc","dba":"","address":"4400 Grape Street","city":"Denver","state":"CO","lat":39.777453,"lng":-104.9241893,"retail":1,"medical":1,"notes":"","cartodb_id":250,"created_at":"2015-01-28T23:30:45Z","updated_at":"2015-01-28T23:30:45Z"}},{"type":"Feature","geometry":{"type":"Point","coordinates":[-106.597594,39.643156]},"properties":{"name":"Berlin International Llc","dba":"Cannika","address":"210 Edwards Village Boulevard","city":"Edwards","state":"CO","lat":39.64315623,"lng":-106.5975943,"retail":1,"medical":0,"notes":"","cartodb_id":251,"created_at":"2015-01-28T23:30:45Z","updated_at":"2015-01-28T23:30:45Z"}},{"type":"Feature","geometry":{"type":"Point","coordinates":[-105.03637,39.63854]},"properties":{"name":"Jois Llc","dba":"Cannamart","address":"3700 West Quincy Avenue, Suite 3702","city":"Denver","state":"CO","lat":39.63853967,"lng":-105.0363697,"retail":0,"medical":1,"notes":"","cartodb_id":252,"created_at":"2015-01-28T23:30:45Z","updated_at":"2015-01-28T23:30:45Z"}},{"type":"Feature","geometry":{"type":"Point","coordinates":[-104.992838,39.891849]},"properties":{"name":"Green Life Solutions Llc","dba":"Green Tree Medicinals","address":"10575 MELODY DRIVE STE 101","city":"Northglenn","state":"CO","lat":39.89184888,"lng":-104.9928384,"retail":1,"medical":0,"notes":"","cartodb_id":253,"created_at":"2015-01-28T23:30:45Z","updated_at":"2015-01-28T23:30:45Z"}},{"type":"Feature","geometry":{"type":"Point","coordinates":[-105.077391,40.493286]},"properties":{"name":"Natural Alternatives For Health Llc","dba":"","address":"6712 South College Avenue, Suite 5","city":"Fort Collins","state":"CO","lat":40.49328613,"lng":-105.0773911,"retail":0,"medical":1,"notes":"","cartodb_id":254,"created_at":"2015-01-28T23:30:45Z","updated_at":"2015-01-28T23:30:45Z"}},{"type":"Feature","geometry":{"type":"Point","coordinates":[-104.979386,39.903008]},"properties":{"name":"The Green Solution Llc","dba":"","address":"470 Malley Drive","city":"Northglenn","state":"CO","lat":39.90300805,"lng":-104.9793862,"retail":1,"medical":1,"notes":"","cartodb_id":255,"created_at":"2015-01-28T23:30:45Z","updated_at":"2015-01-28T23:30:45Z"}},{"type":"Feature","geometry":{"type":"Point","coordinates":[-107.812142,37.935846]},"properties":{"name":"Telluride Green Room Llc","dba":"","address":"250 South Fir Street, Units 5 & 6","city":"Telluride","state":"CO","lat":37.935846,"lng":-107.812142,"retail":0,"medical":1,"notes":"","cartodb_id":256,"created_at":"2015-01-28T23:30:45Z","updated_at":"2015-01-28T23:30:45Z"}},{"type":"Feature","geometry":{"type":"Point","coordinates":[-105.254952,40.050951]},"properties":{"name":"Rmcr Corporation","dba":"Boulder Botanics","address":"1750 30th Street, Unit 7","city":"Boulder","state":"CO","lat":40.05095122,"lng":-105.254952,"retail":0,"medical":1,"notes":"","cartodb_id":257,"created_at":"2015-01-28T23:30:45Z","updated_at":"2015-01-28T23:30:45Z"}},{"type":"Feature","geometry":{"type":"Point","coordinates":[-104.985476,39.75305]},"properties":{"name":"Universal Herbs Llc","dba":"","address":"800 Park Avenue West","city":"Denver","state":"CO","lat":39.75305,"lng":-104.985476,"retail":0,"medical":1,"notes":"","cartodb_id":258,"created_at":"2015-01-28T23:30:45Z","updated_at":"2015-01-28T23:30:45Z"}},{"type":"Feature","geometry":{"type":"Point","coordinates":[-104.805113,38.873935]},"properties":{"name":"Acme Smoke Llc","dba":"Medical Tent","address":"1202 East Fillmore Street","city":"Colorado Springs","state":"CO","lat":38.87393527,"lng":-104.8051132,"retail":0,"medical":1,"notes":"","cartodb_id":259,"created_at":"2015-01-28T23:30:45Z","updated_at":"2015-01-28T23:30:45Z"}},{"type":"Feature","geometry":{"type":"Point","coordinates":[-106.05208,39.510632]},"properties":{"name":"Alpenglow Botanicals Llc","dba":"","address":"1805 Airport Road, Unit B1C,","city":"Breckenridge","state":"CO","lat":39.51063239,"lng":-106.0520798,"retail":0,"medical":1,"notes":"","cartodb_id":260,"created_at":"2015-01-28T23:30:45Z","updated_at":"2015-01-28T23:30:45Z"}},{"type":"Feature","geometry":{"type":"Point","coordinates":[-105.513095,39.799077]},"properties":{"name":"Annies Tobacco Emporium Llc","dba":"Annie'S Dispensary","address":"135 Nevada Street","city":"Central City","state":"CO","lat":39.79907657,"lng":-105.5130952,"retail":1,"medical":1,"notes":"","cartodb_id":261,"created_at":"2015-01-28T23:30:45Z","updated_at":"2015-01-28T23:30:45Z"}},{"type":"Feature","geometry":{"type":"Point","coordinates":[-104.865543,38.848939]},